id,pid,shortname,name,level,pinyin,code,zip_code,first,lng,lat
3,2,东城,东城区,3,dongcheng,10,100010,D,116.41005,39.93157
4,2,西城,西城区,3,xicheng,10,100032,X,116.36003,39.9305
5,2,朝阳,朝阳区,3,chaoyang,10,100020,C,116.48548,39.9484
6,2,丰台,丰台区,3,fengtai,10,100071,F,116.28625,39.8585
7,2,石景山,石景山区,3,shijingshan,10,100043,S,116.2229,39.90564
8,2,海淀,海淀区,3,haidian,10,100089,H,116.29812,39.95931
9,2,门头沟,门头沟区,3,mentougou,10,102300,M,116.10137,39.94043
10,2,房山,房山区,3,fangshan,10,102488,F,116.14257,39.74786
11,2,通州,通州区,3,tongzhou,10,101149,T,116.65716,39.90966
12,2,顺义,顺义区,3,shunyi,10,101300,S,116.65417,40.1302
13,2,昌平,昌平区,3,changping,10,102200,C,116.2312,40.22072
14,2,大兴,大兴区,3,daxing,10,102600,D,116.34149,39.72668
15,2,怀柔,怀柔区,3,huairou,10,101400,H,116.63168,40.31602
16,2,平谷,平谷区,3,pinggu,10,101200,P,117.12133,40.14056
17,2,密云,密云县,3,miyun,10,101500,M,116.84295,40.37618
18,2,延庆,延庆县,3,yanqing,10,102100,Y,115.97494,40.45672
21,20,和平,和平区,3,heping,22,300041,H,117.21456,39.11718
22,20,河东,河东区,3,hedong,22,300171,H,117.22562,39.12318
23,20,河西,河西区,3,hexi,22,300202,H,117.22327,39.10959
24,20,南开,南开区,3,nankai,22,300110,N,117.15074,39.13821
25,20,河北,河北区,3,hebei,22,300143,H,117.19697,39.14816
26,20,红桥,红桥区,3,hongqiao,22,300131,H,117.15145,39.16715
27,20,东丽,东丽区,3,dongli,22,300300,D,117.31436,39.0863
28,20,西青,西青区,3,xiqing,22,300380,X,117.00927,39.14123
29,20,津南,津南区,3,jinnan,22,300350,J,117.38537,38.99139
30,20,北辰,北辰区,3,beichen,22,300400,B,117.13217,39.22131
31,20,武清,武清区,3,wuqing,22,301700,W,117.04443,39.38415
32,20,宝坻,宝坻区,3,baodi,22,301800,B,117.3103,39.71761
33,20,滨海新区,滨海新区,3,binhaixinqu,22,300451,B,117.70162,39.02668
34,20,宁河,宁河县,3,ninghe,22,301500,N,117.8255,39.33048
35,20,静海,静海县,3,jinghai,22,301600,J,116.97436,38.94582
36,20,蓟县,蓟县,3,jixian,22,301900,J,117.40799,40.04567
39,38,长安,长安区,3,chang'an,311,50011,C,114.53906,38.03665
40,38,桥西,桥西区,3,qiaoxi,311,50091,Q,114.46977,38.03221
41,38,新华,新华区,3,xinhua,311,50051,X,114.46326,38.05088
42,38,井陉矿区,井陉矿区,3,jingxingkuangqu,311,50100,J,114.06518,38.06705
43,38,裕华,裕华区,3,yuhua,311,50031,Y,114.53115,38.00604
44,38,藁城,藁城区,3,gaocheng,311,52160,,114.84671,38.02162
45,38,鹿泉,鹿泉区,3,luquan,311,50200,L,114.31347,38.08782
46,38,栾城,栾城区,3,luancheng,311,51430,,114.64834,37.90022
47,38,井陉,井陉县,3,jingxing,311,50300,J,114.14257,38.03688
48,38,正定,正定县,3,zhengding,311,50800,Z,114.57296,38.14445
49,38,行唐,行唐县,3,xingtang,311,50600,X,114.55316,38.43654
50,38,灵寿,灵寿县,3,lingshou,311,50500,L,114.38259,38.30845
51,38,高邑,高邑县,3,gaoyi,311,51330,G,114.61142,37.61556
52,38,深泽,深泽县,3,shenze,311,52560,S,115.20358,38.18353
53,38,赞皇,赞皇县,3,zanhuang,311,51230,Z,114.38775,37.66135
54,38,无极,无极县,3,wuji,311,52460,W,114.97509,38.17653
55,38,平山,平山县,3,pingshan,311,50400,P,114.186,38.25994
56,38,元氏,元氏县,3,yuanshi,311,51130,Y,114.52539,37.76668
57,38,赵县,赵县,3,zhaoxian,311,51530,Z,114.77612,37.75628
58,38,辛集,辛集市,3,xinji,311,52360,X,115.20626,37.94079
59,38,晋州,晋州市,3,jinzhou,311,52260,J,115.04348,38.03135
60,38,新乐,新乐市,3,xinle,311,50700,X,114.68985,38.34417
62,61,路南,路南区,3,lunan,315,63000,L,118.15431,39.62505
63,61,路北,路北区,3,lubei,315,63000,L,118.20079,39.62436
64,61,古冶,古冶区,3,guye,315,63100,G,118.45803,39.71993
65,61,开平,开平区,3,kaiping,315,63021,K,118.26171,39.67128
66,61,丰南,丰南区,3,fengnan,315,63300,F,118.11282,39.56483
67,61,丰润,丰润区,3,fengrun,315,64000,F,118.12976,39.8244
68,61,曹妃甸,曹妃甸区,3,caofeidian,315,63200,C,118.460379,39.27307
69,61,滦县,滦县,3,luanxian,315,63700,L,118.70346,39.74056
70,61,滦南,滦南县,3,luannan,315,63500,L,118.6741,39.5039
71,61,乐亭,乐亭县,3,laoting,315,63600,L,118.9125,39.42561
72,61,迁西,迁西县,3,qianxi,315,64300,Q,118.31616,40.14587
73,61,玉田,玉田县,3,yutian,315,64100,Y,117.7388,39.90049
74,61,遵化,遵化市,3,zunhua,315,64200,Z,117.96444,40.18741
75,61,迁安,迁安市,3,qian'an,315,64400,Q,118.70068,39.99833
77,76,海港,海港区,3,haigang,335,66000,H,119.61046,39.9345
78,76,山海关,山海关区,3,shanhaiguan,335,66200,S,119.77563,39.97869
79,76,北戴河,北戴河区,3,beidaihe,335,66100,B,119.48388,39.83408
80,76,青龙,青龙满族自治县,3,qinglong,335,66500,Q,118.95242,40.40743
81,76,昌黎,昌黎县,3,changli,335,66600,C,119.16595,39.70884
82,76,抚宁,抚宁县,3,funing,335,66300,F,119.24487,39.87538
83,76,卢龙,卢龙县,3,lulong,335,66400,L,118.89288,39.89176
85,84,邯山,邯山区,3,hanshan,310,56001,H,114.48375,36.60006
86,84,丛台,丛台区,3,congtai,310,56002,C,114.49343,36.61847
87,84,复兴,复兴区,3,fuxing,310,56003,F,114.45928,36.61134
88,84,峰峰矿区,峰峰矿区,3,fengfengkuangqu,310,56200,F,114.21148,36.41937
89,84,邯郸,邯郸县,3,handan,310,56101,H,114.53103,36.59385
90,84,临漳,临漳县,3,linzhang,310,56600,L,114.6195,36.33461
91,84,成安,成安县,3,cheng'an,310,56700,C,114.66995,36.44411
92,84,大名,大名县,3,daming,310,56900,D,115.15362,36.27994
93,84,涉县,涉县,3,shexian,310,56400,S,113.69183,36.58072
94,84,磁县,磁县,3,cixian,310,56500,C,114.37387,36.37392
95,84,肥乡,肥乡县,3,feixiang,310,57550,F,114.79998,36.54807
96,84,永年,永年县,3,yongnian,310,57150,Y,114.48925,36.78356
97,84,邱县,邱县,3,qiuxian,310,57450,Q,115.17407,36.82082
98,84,鸡泽,鸡泽县,3,jize,310,57350,J,114.8742,36.92374
99,84,广平,广平县,3,guangping,310,57650,G,114.94653,36.48046
100,84,馆陶,馆陶县,3,guantao,310,57750,G,115.29913,36.53719
101,84,魏县,魏县,3,weixian,310,56800,W,114.93518,36.36171
102,84,曲周,曲周县,3,quzhou,310,57250,Q,114.95196,36.77671
103,84,武安,武安市,3,wu'an,310,56300,W,114.20153,36.69281
105,104,桥东,桥东区,3,qiaodong,319,54001,Q,114.50725,37.06801
106,104,桥西,桥西区,3,qiaoxi,319,54000,Q,114.46803,37.05984
107,104,邢台,邢台县,3,xingtai,319,54001,X,114.56575,37.0456
108,104,临城,临城县,3,lincheng,319,54300,L,114.50387,37.43977
109,104,内丘,内丘县,3,neiqiu,319,54200,N,114.51212,37.28671
110,104,柏乡,柏乡县,3,baixiang,319,55450,B,114.69332,37.48242
111,104,隆尧,隆尧县,3,longyao,319,55350,L,114.77615,37.35351
112,104,任县,任县,3,renxian,319,55150,R,114.6842,37.12575
113,104,南和,南和县,3,nanhe,319,54400,N,114.68371,37.00488
114,104,宁晋,宁晋县,3,ningjin,319,55550,N,114.92117,37.61696
115,104,巨鹿,巨鹿县,3,julu,319,55250,J,115.03524,37.21801
116,104,新河,新河县,3,xinhe,319,55650,X,115.24987,37.52718
117,104,广宗,广宗县,3,guangzong,319,54600,G,115.14254,37.0746
118,104,平乡,平乡县,3,pingxiang,319,54500,P,115.03002,37.06317
119,104,威县,威县,3,weixian,319,54700,W,115.2637,36.9768
120,104,清河,清河县,3,qinghe,319,54800,Q,115.66479,37.07122
121,104,临西,临西县,3,linxi,319,54900,L,115.50097,36.87078
122,104,南宫,南宫市,3,nangong,319,55750,N,115.39068,37.35799
123,104,沙河,沙河市,3,shahe,319,54100,S,114.4981,36.8577
125,124,新市,新市区,3,xinshi,312,71051,X,115.4587,38.87751
126,124,北市,北市区,3,beishi,312,71000,B,115.49715,38.88322
127,124,南市,南市区,3,nanshi,312,71001,N,115.52859,38.85455
128,124,满城,满城县,3,mancheng,312,72150,M,115.32296,38.94972
129,124,清苑,清苑县,3,qingyuan,312,71100,Q,115.49267,38.76709
130,124,涞水,涞水县,3,laishui,312,74100,,115.71517,39.39404
131,124,阜平,阜平县,3,fuping,312,73200,F,114.19683,38.84763
132,124,徐水,徐水县,3,xushui,312,72550,X,115.65829,39.02099
133,124,定兴,定兴县,3,dingxing,312,72650,D,115.80786,39.26312
134,124,唐县,唐县,3,tangxian,312,72350,T,114.98516,38.74513
135,124,高阳,高阳县,3,gaoyang,312,71500,G,115.7788,38.70003
136,124,容城,容城县,3,rongcheng,312,71700,R,115.87158,39.0535
137,124,涞源,涞源县,3,laiyuan,312,74300,,114.69128,39.35388
138,124,望都,望都县,3,wangdu,312,72450,W,115.1567,38.70996
139,124,安新,安新县,3,anxin,312,71600,A,115.93557,38.93532
140,124,易县,易县,3,yixian,312,74200,Y,115.4981,39.34885
141,124,曲阳,曲阳县,3,quyang,312,73100,Q,114.70123,38.62154
142,124,蠡县,蠡县,3,lixian,312,71400,,115.57717,38.48974
143,124,顺平,顺平县,3,shunping,312,72250,S,115.1347,38.83854
144,124,博野,博野县,3,boye,312,71300,B,115.47033,38.4564
145,124,雄县,雄县,3,xiongxian,312,71800,X,116.10873,38.99442
146,124,涿州,涿州市,3,zhuozhou,312,72750,,115.98062,39.48622
147,124,定州,定州市,3,dingzhou,312,73000,D,114.9902,38.51623
148,124,安国,安国市,3,anguo,312,71200,A,115.32321,38.41391
149,124,高碑店,高碑店市,3,gaobeidian,312,74000,G,115.87368,39.32655
151,150,桥东,桥东区,3,qiaodong,313,75000,Q,114.8943,40.78844
152,150,桥西,桥西区,3,qiaoxi,313,75061,Q,114.86962,40.81945
153,150,宣化,宣化区,3,xuanhua,313,75100,X,115.06543,40.60957
154,150,下花园,下花园区,3,xiahuayuan,313,75300,X,115.28744,40.50236
155,150,宣化,宣化县,3,xuanhua,313,75100,X,115.15497,40.56618
156,150,张北,张北县,3,zhangbei,313,76450,Z,114.71432,41.15977
157,150,康保,康保县,3,kangbao,313,76650,K,114.60031,41.85225
158,150,沽源,沽源县,3,guyuan,313,76550,G,115.68859,41.66959
159,150,尚义,尚义县,3,shangyi,313,76750,S,113.97134,41.07782
160,150,蔚县,蔚县,3,yuxian,313,75700,W,114.58892,39.84067
161,150,阳原,阳原县,3,yangyuan,313,75800,Y,114.15051,40.10361
162,150,怀安,怀安县,3,huai'an,313,76150,H,114.38559,40.67425
163,150,万全,万全县,3,wanquan,313,76250,W,114.7405,40.76694
164,150,怀来,怀来县,3,huailai,313,75400,H,115.51773,40.41536
165,150,涿鹿,涿鹿县,3,zhuolu,313,75600,,115.22403,40.37636
166,150,赤城,赤城县,3,chicheng,313,75500,C,115.83187,40.91438
167,150,崇礼,崇礼县,3,chongli,313,76350,C,115.27993,40.97519
169,168,双桥,双桥区,3,shuangqiao,314,67000,S,117.9432,40.97466
170,168,双滦,双滦区,3,shuangluan,314,67001,S,117.74487,40.95375
171,168,鹰手营子矿区,鹰手营子矿区,3,yingshouyingzikuangqu,314,67200,Y,117.65985,40.54744
172,168,承德,承德县,3,chengde,314,67400,C,118.17639,40.76985
173,168,兴隆,兴隆县,3,xinglong,314,67300,X,117.50073,40.41709
174,168,平泉,平泉县,3,pingquan,314,67500,P,118.70196,41.01839
175,168,滦平,滦平县,3,luanping,314,68250,L,117.33276,40.94148
176,168,隆化,隆化县,3,longhua,314,68150,L,117.7297,41.31412
177,168,丰宁,丰宁满族自治县,3,fengning,314,68350,F,116.6492,41.20481
178,168,宽城,宽城满族自治县,3,kuancheng,314,67600,K,118.49176,40.60829
179,168,围场,围场满族蒙古族自治县,3,weichang,314,68450,W,117.7601,41.94368
181,180,新华,新华区,3,xinhua,317,61000,X,116.86643,38.31438
182,180,运河,运河区,3,yunhe,317,61001,Y,116.85706,38.31352
183,180,沧县,沧县,3,cangxian,317,61000,C,116.87817,38.29361
184,180,青县,青县,3,qingxian,317,62650,Q,116.80316,38.58345
185,180,东光,东光县,3,dongguang,317,61600,D,116.53668,37.8857
186,180,海兴,海兴县,3,haixing,317,61200,H,117.49758,38.13958
187,180,盐山,盐山县,3,yanshan,317,61300,Y,117.23092,38.05647
188,180,肃宁,肃宁县,3,suning,317,62350,S,115.82971,38.42272
189,180,南皮,南皮县,3,nanpi,317,61500,N,116.70224,38.04109
190,180,吴桥,吴桥县,3,wuqiao,317,61800,W,116.3847,37.62546
191,180,献县,献县,3,xianxian,317,62250,X,116.12695,38.19228
192,180,孟村,孟村回族自治县,3,mengcun,317,61400,M,117.10412,38.05338
193,180,泊头,泊头市,3,botou,317,62150,B,116.57824,38.08359
194,180,任丘,任丘市,3,renqiu,317,62550,R,116.1033,38.71124
195,180,黄骅,黄骅市,3,huanghua,317,61100,H,117.33883,38.3706
196,180,河间,河间市,3,hejian,317,62450,H,116.0993,38.44549
198,197,安次,安次区,3,anci,316,65000,A,116.70308,39.52057
199,197,广阳,广阳区,3,guangyang,316,65000,G,116.71069,39.52278
200,197,固安,固安县,3,gu'an,316,65500,G,116.29916,39.43833
201,197,永清,永清县,3,yongqing,316,65600,Y,116.50091,39.32069
202,197,香河,香河县,3,xianghe,316,65400,X,117.00634,39.76133
203,197,大城,大城县,3,daicheng,316,65900,D,116.65353,38.70534
204,197,文安,文安县,3,wen'an,316,65800,W,116.45846,38.87325
205,197,大厂,大厂回族自治县,3,dachang,316,65300,D,116.98916,39.88649
206,197,霸州,霸州市,3,bazhou,316,65700,B,116.39154,39.12569
207,197,三河,三河市,3,sanhe,316,65200,S,117.07229,39.98358
209,208,桃城,桃城区,3,taocheng,318,53000,T,115.67529,37.73499
210,208,枣强,枣强县,3,zaoqiang,318,53100,Z,115.72576,37.51027
211,208,武邑,武邑县,3,wuyi,318,53400,W,115.88748,37.80181
212,208,武强,武强县,3,wuqiang,318,53300,W,115.98226,38.04138
213,208,饶阳,饶阳县,3,raoyang,318,53900,R,115.72558,38.23529
214,208,安平,安平县,3,anping,318,53600,A,115.51876,38.23388
215,208,故城,故城县,3,gucheng,318,53800,G,115.97076,37.34773
216,208,景县,景县,3,jingxian,318,53500,J,116.26904,37.6926
217,208,阜城,阜城县,3,fucheng,318,53700,F,116.14431,37.86881
218,208,冀州,冀州市,3,jizhou,318,53200,J,115.57934,37.55082
219,208,深州,深州市,3,shenzhou,318,53800,S,115.55993,38.00109
222,221,小店,小店区,3,xiaodian,351,30032,X,112.56878,37.73565
223,221,迎泽,迎泽区,3,yingze,351,30002,Y,112.56338,37.86326
224,221,杏花岭,杏花岭区,3,xinghualing,351,30009,X,112.56237,37.88429
225,221,尖草坪,尖草坪区,3,jiancaoping,351,30023,J,112.48709,37.94193
226,221,万柏林,万柏林区,3,wanbailin,351,30024,W,112.51553,37.85923
227,221,晋源,晋源区,3,jinyuan,351,30025,J,112.47985,37.72479
228,221,清徐,清徐县,3,qingxu,351,30400,Q,112.35888,37.60758
229,221,阳曲,阳曲县,3,yangqu,351,30100,Y,112.67861,38.05989
230,221,娄烦,娄烦县,3,loufan,351,30300,L,111.79473,38.06689
231,221,古交,古交市,3,gujiao,351,30200,G,112.16918,37.90983
233,232,城区,城区,3,chengqu,352,37008,C,113.298,40.07566
234,232,矿区,矿区,3,kuangqu,352,37003,K,113.1772,40.03685
235,232,南郊,南郊区,3,nanjiao,352,37001,N,113.14947,40.00539
236,232,新荣,新荣区,3,xinrong,352,37002,X,113.13504,40.25618
237,232,阳高,阳高县,3,yanggao,352,38100,Y,113.75012,40.36256
238,232,天镇,天镇县,3,tianzhen,352,38200,T,114.0931,40.42299
239,232,广灵,广灵县,3,guangling,352,37500,G,114.28204,39.76082
240,232,灵丘,灵丘县,3,lingqiu,352,34400,L,114.23672,39.44043
241,232,浑源,浑源县,3,hunyuan,352,37400,H,113.69552,39.69962
242,232,左云,左云县,3,zuoyun,352,37100,Z,112.70266,40.01336
243,232,大同,大同县,3,datong,352,37300,D,113.61212,40.04012
245,244,城区,城区,3,chengqu,353,45000,C,113.60069,37.8474
246,244,矿区,矿区,3,kuangqu,353,45000,K,113.55677,37.86895
247,244,郊区,郊区,3,jiaoqu,353,45011,J,113.58539,37.94139
248,244,平定,平定县,3,pingding,353,45200,P,113.65789,37.78601
249,244,盂县,盂县,3,yuxian,353,45100,Y,113.41235,38.08579
251,250,城区,城区,3,chengqu,355,46011,C,113.12308,36.20351
252,250,郊区,郊区,3,jiaoqu,355,46011,J,113.12653,36.19918
253,250,长治,长治县,3,changzhi,355,47100,C,113.04791,36.04722
254,250,襄垣,襄垣县,3,xiangyuan,355,46200,X,113.05157,36.53527
255,250,屯留,屯留县,3,tunliu,355,46100,T,112.89196,36.31579
256,250,平顺,平顺县,3,pingshun,355,47400,P,113.43603,36.20005
257,250,黎城,黎城县,3,licheng,355,47600,L,113.38766,36.50301
258,250,壶关,壶关县,3,huguan,355,47300,H,113.207,36.11301
259,250,长子,长子县,3,zhangzi,355,46600,C,112.87731,36.12125
260,250,武乡,武乡县,3,wuxiang,355,46300,W,112.86343,36.83687
261,250,沁县,沁县,3,qinxian,355,46400,Q,112.69863,36.75628
262,250,沁源,沁源县,3,qinyuan,355,46500,Q,112.33758,36.50008
263,250,潞城,潞城市,3,lucheng,355,47500,L,113.22888,36.33414
265,264,城区,城区,3,chengqu,356,48000,C,112.85319,35.50175
266,264,沁水,沁水县,3,qinshui,356,48200,Q,112.1871,35.69102
267,264,阳城,阳城县,3,yangcheng,356,48100,Y,112.41485,35.48614
268,264,陵川,陵川县,3,lingchuan,356,48300,L,113.2806,35.77532
269,264,泽州,泽州县,3,zezhou,356,48012,Z,112.83947,35.50789
270,264,高平,高平市,3,gaoping,356,48400,G,112.92288,35.79705
272,271,朔城,朔城区,3,shuocheng,349,36000,S,112.43189,39.31982
273,271,平鲁,平鲁区,3,pinglu,349,38600,P,112.28833,39.51155
274,271,山阴,山阴县,3,shanyin,349,36900,S,112.81662,39.52697
275,271,应县,应县,3,yingxian,349,37600,Y,113.19052,39.55279
276,271,右玉,右玉县,3,youyu,349,37200,Y,112.46902,39.99011
277,271,怀仁,怀仁县,3,huairen,349,38300,H,113.10009,39.82806
279,278,榆次,榆次区,3,yuci,354,30600,Y,112.70788,37.6978
280,278,榆社,榆社县,3,yushe,354,31800,Y,112.97558,37.0721
281,278,左权,左权县,3,zuoquan,354,32600,Z,113.37918,37.08235
282,278,和顺,和顺县,3,heshun,354,32700,H,113.56988,37.32963
283,278,昔阳,昔阳县,3,xiyang,354,45300,X,113.70517,37.61863
284,278,寿阳,寿阳县,3,shouyang,354,45400,S,113.17495,37.88899
285,278,太谷,太谷县,3,taigu,354,30800,T,112.55246,37.42161
286,278,祁县,祁县,3,qixian,354,30900,Q,112.33358,37.3579
287,278,平遥,平遥县,3,pingyao,354,31100,P,112.17553,37.1892
288,278,灵石,灵石县,3,lingshi,354,31300,L,111.7774,36.84814
289,278,介休,介休市,3,jiexiu,354,32000,J,111.91824,37.02771
291,290,盐湖,盐湖区,3,yanhu,359,44000,Y,110.99827,35.0151
292,290,临猗,临猗县,3,linyi,359,44100,L,110.77432,35.14455
293,290,万荣,万荣县,3,wanrong,359,44200,W,110.83657,35.41556
294,290,闻喜,闻喜县,3,wenxi,359,43800,W,111.22265,35.35553
295,290,稷山,稷山县,3,jishan,359,43200,,110.97924,35.59993
296,290,新绛,新绛县,3,xinjiang,359,43100,X,111.22509,35.61566
297,290,绛县,绛县,3,jiangxian,359,43600,,111.56668,35.49096
298,290,垣曲,垣曲县,3,yuanqu,359,43700,Y,111.67166,35.29923
299,290,夏县,夏县,3,xiaxian,359,44400,X,111.21966,35.14121
300,290,平陆,平陆县,3,pinglu,359,44300,P,111.21704,34.83772
301,290,芮城,芮城县,3,ruicheng,359,44600,,110.69455,34.69384
302,290,永济,永济市,3,yongji,359,44500,Y,110.44537,34.86556
303,290,河津,河津市,3,hejin,359,43300,H,110.7116,35.59478
305,304,忻府,忻府区,3,xinfu,350,34000,X,112.74603,38.40414
306,304,定襄,定襄县,3,dingxiang,350,35400,D,112.95733,38.47387
307,304,五台,五台县,3,wutai,350,35500,W,113.25256,38.72774
308,304,代县,代县,3,daixian,350,34200,D,112.95913,39.06717
309,304,繁峙,繁峙县,3,fanshi,350,34300,F,113.26303,39.18886
310,304,宁武,宁武县,3,ningwu,350,36700,N,112.30423,39.00211
311,304,静乐,静乐县,3,jingle,350,35100,J,111.94158,38.3602
312,304,神池,神池县,3,shenchi,350,36100,S,112.20541,39.09
313,304,五寨,五寨县,3,wuzhai,350,36200,W,111.8489,38.90757
314,304,岢岚,岢岚县,3,kelan,350,36300,,111.57388,38.70452
315,304,河曲,河曲县,3,hequ,350,36500,H,111.13821,39.38439
316,304,保德,保德县,3,baode,350,36600,B,111.08656,39.02248
317,304,偏关,偏关县,3,pianguan,350,36400,P,111.50863,39.43609
318,304,原平,原平市,3,yuanping,350,34100,Y,112.70584,38.73181
320,319,尧都,尧都区,3,yaodu,357,41000,Y,111.5787,36.08298
321,319,曲沃,曲沃县,3,quwo,357,43400,Q,111.47525,35.64119
322,319,翼城,翼城县,3,yicheng,357,43500,Y,111.7181,35.73881
323,319,襄汾,襄汾县,3,xiangfen,357,41500,X,111.44204,35.87711
324,319,洪洞,洪洞县,3,hongtong,357,41600,H,111.67501,36.25425
325,319,古县,古县,3,guxian,357,42400,G,111.92041,36.26688
326,319,安泽,安泽县,3,anze,357,42500,A,112.24981,36.14803
327,319,浮山,浮山县,3,fushan,357,42600,F,111.84744,35.96854
328,319,吉县,吉县,3,jixian,357,42200,J,110.68148,36.09873
329,319,乡宁,乡宁县,3,xiangning,357,42100,X,110.84652,35.97072
330,319,大宁,大宁县,3,daning,357,42300,D,110.75216,36.46624
331,319,隰县,隰县,3,xixian,357,41300,,110.93881,36.69258
332,319,永和,永和县,3,yonghe,357,41400,Y,110.63168,36.7584
333,319,蒲县,蒲县,3,puxian,357,41200,P,111.09674,36.41243
334,319,汾西,汾西县,3,fenxi,357,31500,F,111.56811,36.65063
335,319,侯马,侯马市,3,houma,357,43000,H,111.37207,35.61903
336,319,霍州,霍州市,3,huozhou,357,31400,H,111.755,36.5638
338,337,离石,离石区,3,lishi,358,33000,L,111.15059,37.5177
339,337,文水,文水县,3,wenshui,358,32100,W,112.02829,37.43841
340,337,交城,交城县,3,jiaocheng,358,30500,J,112.1585,37.5512
341,337,兴县,兴县,3,xingxian,358,33600,X,111.12692,38.46321
342,337,临县,临县,3,linxian,358,33200,L,110.99282,37.95271
343,337,柳林,柳林县,3,liulin,358,33300,L,110.88922,37.42932
344,337,石楼,石楼县,3,shilou,358,32500,S,110.8352,36.99731
345,337,岚县,岚县,3,lanxian,358,33500,,111.67627,38.27874
346,337,方山,方山县,3,fangshan,358,33100,F,111.24011,37.88979
347,337,中阳,中阳县,3,zhongyang,358,33400,Z,111.1795,37.35715
348,337,交口,交口县,3,jiaokou,358,32400,J,111.18103,36.98213
349,337,孝义,孝义市,3,xiaoyi,358,32300,X,111.77362,37.14414
350,337,汾阳,汾阳市,3,fenyang,358,32200,F,111.7882,37.26605
353,352,新城,新城区,3,xincheng,471,10050,X,111.66554,40.85828
354,352,回民,回民区,3,huimin,471,10030,H,111.62402,40.80827
355,352,玉泉,玉泉区,3,yuquan,471,10020,Y,111.67456,40.75227
356,352,赛罕,赛罕区,3,saihan,471,10020,S,111.70224,40.79207
357,352,土默特左旗,土默特左旗,3,tumotezuoqi,471,10100,T,111.14898,40.72229
358,352,托克托,托克托县,3,tuoketuo,471,10200,T,111.19101,40.27492
359,352,和林格尔,和林格尔县,3,helingeer,471,11500,H,111.82205,40.37892
360,352,清水河,清水河县,3,qingshuihe,471,11600,Q,111.68316,39.9097
361,352,武川,武川县,3,wuchuan,471,11700,W,111.45785,41.09289
363,362,东河,东河区,3,donghe,472,14040,D,110.0462,40.58237
364,362,昆都仑,昆都仑区,3,kundulun,472,14010,K,109.83862,40.64175
365,362,青山,青山区,3,qingshan,472,14030,Q,109.90131,40.64329
366,362,石拐,石拐区,3,shiguai,472,14070,S,110.27322,40.67297
367,362,白云鄂博矿区,白云鄂博矿区,3,baiyunebokuangqu,472,14080,B,109.97367,41.76968
368,362,九原,九原区,3,jiuyuan,472,14060,J,109.96496,40.60554
369,362,土默特右旗,土默特右旗,3,tumoteyouqi,472,14100,T,110.52417,40.5688
370,362,固阳,固阳县,3,guyang,472,14200,G,110.06372,41.01851
371,362,达茂旗,达尔罕茂明安联合旗,3,damaoqi,472,14500,D,110.43258,41.69875
373,372,海勃湾,海勃湾区,3,haibowan,473,16000,H,106.8222,39.66955
374,372,海南,海南区,3,hainan,473,16030,H,106.88656,39.44128
375,372,乌达,乌达区,3,wuda,473,16040,W,106.72723,39.505
377,376,红山,红山区,3,hongshan,476,24020,H,118.95755,42.24312
378,376,元宝山,元宝山区,3,yuanbaoshan,476,24076,Y,119.28921,42.04005
379,376,松山,松山区,3,songshan,476,24005,S,118.9328,42.28613
380,376,阿鲁科尔沁旗,阿鲁科尔沁旗,3,alukeerqinqi,476,25550,A,120.06527,43.87988
381,376,巴林左旗,巴林左旗,3,balinzuoqi,476,25450,B,119.38012,43.97031
382,376,巴林右旗,巴林右旗,3,balinyouqi,476,25150,B,118.66461,43.53387
383,376,林西,林西县,3,linxi,476,25250,L,118.04733,43.61165
384,376,克什克腾旗,克什克腾旗,3,keshiketengqi,476,25350,K,117.54562,43.26501
385,376,翁牛特旗,翁牛特旗,3,wengniuteqi,476,24500,W,119.03042,42.93147
386,376,喀喇沁旗,喀喇沁旗,3,kalaqinqi,476,24400,K,118.70144,41.92917
387,376,宁城,宁城县,3,ningcheng,476,24200,N,119.34375,41.59661
388,376,敖汉旗,敖汉旗,3,aohanqi,476,24300,A,119.92163,42.29071
390,389,科尔沁,科尔沁区,3,keerqin,475,28000,K,122.25573,43.62257
391,389,科尔沁左翼中旗,科尔沁左翼中旗,3,keerqinzuoyizhongqi,475,29300,K,123.31912,44.13014
392,389,科尔沁左翼后旗,科尔沁左翼后旗,3,keerqinzuoyihouqi,475,28100,K,122.35745,42.94897
393,389,开鲁,开鲁县,3,kailu,475,28400,K,121.31884,43.60003
394,389,库伦旗,库伦旗,3,kulunqi,475,28200,K,121.776,42.72998
395,389,奈曼旗,奈曼旗,3,naimanqi,475,28300,N,120.66348,42.84527
396,389,扎鲁特旗,扎鲁特旗,3,zhaluteqi,475,29100,Z,120.91507,44.55592
397,389,霍林郭勒,霍林郭勒市,3,huolinguole,475,29200,H,119.65429,45.53454
399,398,东胜,东胜区,3,dongsheng,477,17000,D,109.96289,39.82236
400,398,达拉特旗,达拉特旗,3,dalateqi,477,14300,D,110.03317,40.4001
401,398,准格尔旗,准格尔旗,3,zhungeerqi,477,17100,Z,111.23645,39.86783
402,398,鄂托克前旗,鄂托克前旗,3,etuokeqianqi,477,16200,E,107.48403,38.18396
403,398,鄂托克旗,鄂托克旗,3,etuokeqi,477,16100,E,107.98226,39.09456
404,398,杭锦旗,杭锦旗,3,hangjinqi,477,17400,H,108.72934,39.84023
405,398,乌审旗,乌审旗,3,wushenqi,477,17300,W,108.8461,38.59092
406,398,伊金霍洛旗,伊金霍洛旗,3,yijinhuoluoqi,477,17200,Y,109.74908,39.57393
408,407,海拉尔,海拉尔区,3,hailaer,470,21000,H,119.7364,49.2122
409,407,扎赉诺尔,扎赉诺尔区,3,zhalainuoer,470,21410,Z,117.792702,49.486943
410,407,阿荣旗,阿荣旗,3,arongqi,470,162750,A,123.45941,48.12581
411,407,莫旗,莫力达瓦达斡尔族自治旗,3,moqi,470,162850,M,124.51498,48.48055
412,407,鄂伦春,鄂伦春自治旗,3,elunchun,470,165450,E,123.72604,50.59777
413,407,鄂温,鄂温克族自治旗,3,ewen,470,21100,E,119.7565,49.14284
414,407,陈巴尔虎旗,陈巴尔虎旗,3,chenbaerhuqi,470,21500,C,119.42434,49.32684
415,407,新巴尔虎左旗,新巴尔虎左旗,3,xinbaerhuzuoqi,470,21200,X,118.26989,48.21842
416,407,新巴尔虎右旗,新巴尔虎右旗,3,xinbaerhuyouqi,470,21300,X,116.82366,48.66473
417,407,满洲里,满洲里市,3,manzhouli,470,21400,M,117.47946,49.58272
418,407,牙克石,牙克石市,3,yakeshi,470,22150,Y,120.7117,49.2856
419,407,扎兰屯,扎兰屯市,3,zhalantun,470,162650,Z,122.73757,48.01363
420,407,额尔古纳,额尔古纳市,3,eerguna,470,22250,E,120.19094,50.24249
421,407,根河,根河市,3,genhe,470,22350,G,121.52197,50.77996
423,422,临河,临河区,3,linhe,478,15001,L,107.42668,40.75827
424,422,五原,五原县,3,wuyuan,478,15100,W,108.26916,41.09631
425,422,磴口,磴口县,3,dengkou,478,15200,,107.00936,40.33062
426,422,乌拉特前旗,乌拉特前旗,3,wulateqianqi,478,14400,W,108.65219,40.73649
427,422,乌拉特中旗,乌拉特中旗,3,wulatezhongqi,478,15300,W,108.52587,41.56789
428,422,乌拉特后旗,乌拉特后旗,3,wulatehouqi,478,15500,W,106.98971,41.43151
429,422,杭锦后旗,杭锦后旗,3,hangjinhouqi,478,15400,H,107.15133,40.88627
431,430,集宁,集宁区,3,jining,474,12000,J,113.11452,41.0353
432,430,卓资,卓资县,3,zhuozi,474,12300,Z,112.57757,40.89414
433,430,化德,化德县,3,huade,474,13350,H,114.01071,41.90433
434,430,商都,商都县,3,shangdu,474,13450,S,113.57772,41.56213
435,430,兴和,兴和县,3,xinghe,474,13650,X,113.83395,40.87186
436,430,凉城,凉城县,3,liangcheng,474,13750,L,112.49569,40.53346
437,430,察右前旗,察哈尔右翼前旗,3,chayouqianqi,474,12200,C,113.22131,40.7788
438,430,察右中旗,察哈尔右翼中旗,3,chayouzhongqi,474,13550,C,112.63537,41.27742
439,430,察右后旗,察哈尔右翼后旗,3,chayouhouqi,474,12400,C,113.19216,41.43554
440,430,四子王旗,四子王旗,3,siziwangqi,474,11800,S,111.70654,41.53312
441,430,丰镇,丰镇市,3,fengzhen,474,12100,F,113.10983,40.4369
443,442,乌兰浩特,乌兰浩特市,3,wulanhaote,482,137401,W,122.06378,46.06235
444,442,阿尔山,阿尔山市,3,aershan,482,137800,A,119.94317,47.17716
445,442,科右前旗,科尔沁右翼前旗,3,keyouqianqi,482,137423,K,121.95269,46.0795
446,442,科右中旗,科尔沁右翼中旗,3,keyouzhongqi,482,29400,K,121.46807,45.05605
447,442,扎赉特旗,扎赉特旗,3,zhalaiteqi,482,137600,Z,122.91229,46.7267
448,442,突泉,突泉县,3,tuquan,482,137500,T,121.59396,45.38187
450,449,二连浩特,二连浩特市,3,erlianhaote,479,11100,E,111.98297,43.65303
451,449,锡林浩特,锡林浩特市,3,xilinhaote,479,26021,X,116.08603,43.93341
452,449,阿巴嘎旗,阿巴嘎旗,3,abagaqi,479,11400,A,114.96826,44.02174
453,449,苏尼特左旗,苏尼特左旗,3,sunitezuoqi,479,11300,S,113.6506,43.85687
454,449,苏尼特右旗,苏尼特右旗,3,suniteyouqi,479,11200,S,112.65741,42.7469
455,449,东乌旗,东乌珠穆沁旗,3,dongwuqi,479,26300,D,116.97293,45.51108
456,449,西乌旗,西乌珠穆沁旗,3,xiwuqi,479,26200,X,117.60983,44.59623
457,449,太仆寺旗,太仆寺旗,3,taipusiqi,479,27000,T,115.28302,41.87727
458,449,镶黄旗,镶黄旗,3,xianghuangqi,479,13250,X,113.84472,42.23927
459,449,正镶白旗,正镶白旗,3,zhengxiangbaiqi,479,13800,Z,115.00067,42.30712
460,449,正蓝旗,正蓝旗,3,zhenglanqi,479,27200,Z,116.00363,42.25229
461,449,多伦,多伦县,3,duolun,479,27300,D,116.48565,42.203
463,462,阿拉善左旗,阿拉善左旗,3,alashanzuoqi,483,750306,A,105.67532,38.8293
464,462,阿拉善右旗,阿拉善右旗,3,alashanyouqi,483,737300,A,101.66705,39.21533
465,462,额济纳旗,额济纳旗,3,ejinaqi,483,735400,E,101.06887,41.96755
468,467,和平,和平区,3,heping,24,110001,H,123.4204,41.78997
469,467,沈河,沈河区,3,shenhe,24,110011,S,123.45871,41.79625
470,467,大东,大东区,3,dadong,24,110041,D,123.46997,41.80539
471,467,皇姑,皇姑区,3,huanggu,24,110031,H,123.42527,41.82035
472,467,铁西,铁西区,3,tiexi,24,110021,T,123.37675,41.80269
473,467,苏家屯,苏家屯区,3,sujiatun,24,110101,S,123.34405,41.66475
474,467,浑南,浑南区,3,hunnan,24,110015,H,123.457707,41.71945
475,467,沈北新区,沈北新区,3,shenbeixinqu,24,110121,S,123.52658,42.05297
476,467,于洪,于洪区,3,yuhong,24,110141,Y,123.30807,41.794
477,467,辽中,辽中县,3,liaozhong,24,110200,L,122.72659,41.51302
478,467,康平,康平县,3,kangping,24,110500,K,123.35446,42.75081
479,467,法库,法库县,3,faku,24,110400,F,123.41214,42.50608
480,467,新民,新民市,3,xinmin,24,110300,X,122.82867,41.99847
482,481,中山,中山区,3,zhongshan,411,116001,Z,121.64465,38.91859
483,481,西岗,西岗区,3,xigang,411,116011,X,121.61238,38.91469
484,481,沙河口,沙河口区,3,shahekou,411,116021,S,121.58017,38.90536
485,481,甘井子,甘井子区,3,ganjingzi,411,116033,G,121.56567,38.95017
486,481,旅顺口,旅顺口区,3,lvshunkou,411,116041,L,121.26202,38.85125
487,481,金州,金州区,3,jinzhou,411,116100,J,121.71893,39.1004
488,481,长海,长海县,3,changhai,411,116500,C,122.58859,39.27274
489,481,瓦房店,瓦房店市,3,wafangdian,411,116300,W,121.98104,39.62843
490,481,普兰店,普兰店市,3,pulandian,411,116200,P,121.96316,39.39465
491,481,庄河,庄河市,3,zhuanghe,411,116400,Z,122.96725,39.68815
493,492,铁东,铁东区,3,tiedong,412,114001,T,122.99085,41.08975
494,492,铁西,铁西区,3,tiexi,413,114013,T,122.96967,41.11977
495,492,立山,立山区,3,lishan,414,114031,L,123.02948,41.15008
496,492,千山,千山区,3,qianshan,415,114041,Q,122.96048,41.07507
497,492,台安,台安县,3,tai'an,417,114100,T,122.43585,41.41265
498,492,岫岩,岫岩满族自治县,3,xiuyan,418,114300,,123.28875,40.27996
499,492,海城,海城市,3,haicheng,416,114200,H,122.68457,40.88142
501,500,新抚,新抚区,3,xinfu,24,113008,X,123.91264,41.86205
502,500,东洲,东洲区,3,dongzhou,24,113003,D,124.03759,41.8519
503,500,望花,望花区,3,wanghua,24,113001,W,123.78283,41.85532
504,500,顺城,顺城区,3,shuncheng,24,113006,S,123.94506,41.88321
505,500,抚顺,抚顺县,3,fushun,24,113006,F,124.17755,41.71217
506,500,新宾,新宾满族自治县,3,xinbin,24,113200,X,125.04049,41.73409
507,500,清原,清原满族自治县,3,qingyuan,24,113300,Q,124.92807,42.10221
509,508,平山,平山区,3,pingshan,414,117000,P,123.76892,41.2997
510,508,溪湖,溪湖区,3,xihu,414,117002,X,123.76764,41.32921
511,508,明山,明山区,3,mingshan,414,117021,M,123.81746,41.30827
512,508,南芬,南芬区,3,nanfen,414,117014,N,123.74523,41.1006
513,508,本溪,本溪满族自治县,3,benxi,414,117100,B,124.12741,41.30059
514,508,桓仁,桓仁满族自治县,3,huanren,414,117200,H,125.36062,41.26798
516,515,元宝,元宝区,3,yuanbao,415,118000,Y,124.39575,40.13651
517,515,振兴,振兴区,3,zhenxing,415,118002,Z,124.36035,40.10489
518,515,振安,振安区,3,zhen'an,415,118001,Z,124.42816,40.15826
519,515,宽甸,宽甸满族自治县,3,kuandian,415,118200,K,124.78247,40.73187
520,515,东港,东港市,3,donggang,415,118300,D,124.16287,39.86256
521,515,凤城,凤城市,3,fengcheng,415,118100,F,124.06671,40.45302
523,522,古塔,古塔区,3,guta,416,121001,G,121.12832,41.11725
524,522,凌河,凌河区,3,linghe,416,121000,L,121.15089,41.11496
525,522,太和,太和区,3,taihe,416,121011,T,121.10354,41.10929
526,522,黑山,黑山县,3,heishan,416,121400,H,122.12081,41.69417
527,522,义县,义县,3,yixian,416,121100,Y,121.24035,41.53458
528,522,凌海,凌海市,3,linghai,416,121200,L,121.35705,41.1737
529,522,北镇,北镇市,3,beizhen,416,121300,B,121.79858,41.59537
531,530,站前,站前区,3,zhanqian,417,115002,Z,122.25896,40.67266
532,530,西市,西市区,3,xishi,417,115004,X,122.20641,40.6664
533,530,鲅鱼圈,鲅鱼圈区,3,bayuquan,417,115007,,122.13266,40.26865
534,530,老边,老边区,3,laobian,417,115005,L,122.37996,40.6803
535,530,盖州,盖州市,3,gaizhou,417,115200,G,122.35464,40.40446
536,530,大石桥,大石桥市,3,dashiqiao,417,115100,D,122.50927,40.64567
538,537,海州,海州区,3,haizhou,418,123000,H,121.65626,42.01336
539,537,新邱,新邱区,3,xinqiu,418,123005,X,121.79251,42.09181
540,537,太平,太平区,3,taiping,418,123003,T,121.67865,42.01065
541,537,清河门,清河门区,3,qinghemen,418,123006,Q,121.4161,41.78309
542,537,细河,细河区,3,xihe,418,123000,X,121.68013,42.02533
543,537,阜新,阜新蒙古族自治县,3,fuxin,418,123100,F,121.75787,42.0651
544,537,彰武,彰武县,3,zhangwu,418,123200,Z,122.54022,42.38625
546,545,白塔,白塔区,3,baita,419,111000,B,123.1747,41.27025
547,545,文圣,文圣区,3,wensheng,419,111000,W,123.18521,41.26267
548,545,宏伟,宏伟区,3,hongwei,419,111003,H,123.1929,41.21852
549,545,弓长岭,弓长岭区,3,gongchangling,419,111008,G,123.41963,41.15181
550,545,太子河,太子河区,3,taizihe,419,111000,T,123.18182,41.25337
551,545,辽阳,辽阳县,3,liaoyang,419,111200,L,123.10574,41.20542
552,545,灯塔,灯塔市,3,dengta,419,111300,D,123.33926,41.42612
554,553,双台子,双台子区,3,shuangtaizi,427,124000,S,122.06011,41.1906
555,553,兴隆台,兴隆台区,3,xinglongtai,427,124010,X,122.07529,41.12402
556,553,大洼,大洼县,3,dawa,427,124200,D,122.08239,41.00244
557,553,盘山,盘山县,3,panshan,427,124000,P,121.99777,41.23805
559,558,银州,银州区,3,yinzhou,24,112000,Y,123.8573,42.29507
560,558,清河,清河区,3,qinghe,24,112003,Q,124.15911,42.54679
561,558,铁岭,铁岭县,3,tieling,24,112000,T,123.77325,42.22498
562,558,西丰,西丰县,3,xifeng,24,112400,X,124.7304,42.73756
563,558,昌图,昌图县,3,changtu,24,112500,C,124.11206,42.78428
564,558,调兵山,调兵山市,3,diaobingshan,24,112700,D,123.56689,42.4675
565,558,开原,开原市,3,kaiyuan,24,112300,K,124.03945,42.54585
567,566,双塔,双塔区,3,shuangta,421,122000,S,120.45385,41.566
568,566,龙城,龙城区,3,longcheng,421,122000,L,120.43719,41.59264
569,566,朝阳,朝阳县,3,chaoyang,421,122000,C,120.17401,41.4324
570,566,建平,建平县,3,jianping,421,122400,J,119.64392,41.40315
571,566,喀喇沁左翼,喀喇沁左翼蒙古族自治县,3,kalaqinzuoyi,421,122300,K,119.74185,41.12801
572,566,北票,北票市,3,beipiao,421,122100,B,120.76977,41.80196
573,566,凌源,凌源市,3,lingyuan,421,122500,L,119.40148,41.24558
575,574,连山,连山区,3,lianshan,429,125001,L,120.86393,40.75554
576,574,龙港,龙港区,3,longgang,429,125003,L,120.94866,40.71919
577,574,南票,南票区,3,nanpiao,429,125027,N,120.74978,41.10707
578,574,绥中,绥中县,3,suizhong,429,125200,S,120.34451,40.32552
579,574,建昌,建昌县,3,jianchang,429,125300,J,119.8377,40.82448
580,574,兴城,兴城市,3,xingcheng,429,125100,X,120.72537,40.61492
582,581,金州新区,金州新区,3,jinzhouxinqu,411,116100,J,121.784821,39.052252
583,581,普湾新区,普湾新区,3,puwanxinqu,411,116200,P,121.812812,39.330093
584,581,保税区,保税区,3,baoshuiqu,411,116100,B,121.94289,39.224614
587,586,南关,南关区,3,nanguan,431,130022,N,125.35035,43.86401
588,586,宽城,宽城区,3,kuancheng,431,130051,K,125.32635,43.90182
589,586,朝阳,朝阳区,3,chaoyang,431,130012,C,125.2883,43.83339
590,586,二道,二道区,3,erdao,431,130031,E,125.37429,43.86501
591,586,绿园,绿园区,3,lvyuan,431,130062,L,125.25582,43.88045
592,586,双阳,双阳区,3,shuangyang,431,130600,S,125.65631,43.52803
593,586,九台,九台区,3,jiutai,431,130500,J,125.8395,44.15163
594,586,农安,农安县,3,nong'an,431,130200,N,125.18481,44.43265
595,586,榆树,榆树市,3,yushu,431,130400,Y,126.55688,44.82523
596,586,德惠,德惠市,3,dehui,431,130300,D,125.70538,44.53719
598,597,昌邑,昌邑区,3,changyi,432,132002,C,126.57424,43.88183
599,597,龙潭,龙潭区,3,longtan,432,132021,L,126.56213,43.91054
600,597,船营,船营区,3,chuanying,432,132011,C,126.54096,43.83344
601,597,丰满,丰满区,3,fengman,432,132013,F,126.56237,43.82236
602,597,永吉,永吉县,3,yongji,432,132200,Y,126.4963,43.67197
603,597,蛟河,蛟河市,3,jiaohe,432,132500,,127.34426,43.72696
604,597,桦甸,桦甸市,3,huadian,432,132400,,126.74624,42.97206
605,597,舒兰,舒兰市,3,shulan,432,132600,S,126.9653,44.40582
606,597,磐石,磐石市,3,panshi,432,132300,P,126.0625,42.94628
608,607,铁西,铁西区,3,tiexi,434,136000,T,124.37369,43.17456
609,607,铁东,铁东区,3,tiedong,434,136001,T,124.40976,43.16241
610,607,梨树,梨树县,3,lishu,434,136500,L,124.33563,43.30717
611,607,伊通,伊通满族自治县,3,yitong,434,130700,Y,125.30596,43.34434
612,607,公主岭,公主岭市,3,gongzhuling,434,136100,G,124.82266,43.50453
613,607,双辽,双辽市,3,shuangliao,434,136400,S,123.50106,43.52099
615,614,龙山,龙山区,3,longshan,437,136200,L,125.13641,42.89714
616,614,西安,西安区,3,xi'an,437,136201,X,125.14904,42.927
617,614,东丰,东丰县,3,dongfeng,437,136300,D,125.53244,42.6783
618,614,东辽,东辽县,3,dongliao,437,136600,D,124.98596,42.92492
620,619,东昌,东昌区,3,dongchang,435,134001,D,125.9551,41.72849
621,619,二道江,二道江区,3,erdaojiang,435,134003,E,126.04257,41.7741
622,619,通化,通化县,3,tonghua,435,134100,T,125.75936,41.67928
623,619,辉南,辉南县,3,huinan,435,135100,H,126.04684,42.68497
624,619,柳河,柳河县,3,liuhe,435,135300,L,125.74475,42.28468
625,619,梅河口,梅河口市,3,meihekou,435,135000,M,125.71041,42.53828
626,619,集安,集安市,3,ji'an,435,134200,J,126.18829,41.12268
628,627,浑江,浑江区,3,hunjiang,439,134300,H,126.422342,41.945656
629,627,江源,江源区,3,jiangyuan,439,134700,J,126.59079,42.05664
630,627,抚松,抚松县,3,fusong,439,134500,F,127.2803,42.34198
631,627,靖宇,靖宇县,3,jingyu,439,135200,J,126.81308,42.38863
632,627,长白,长白朝鲜族自治县,3,changbai,439,134400,C,128.20047,41.41996
633,627,临江,临江市,3,linjiang,439,134600,L,126.91751,41.81142
635,634,宁江,宁江区,3,ningjiang,438,138000,N,124.81689,45.17175
636,634,前郭尔罗斯,前郭尔罗斯蒙古族自治县,3,qianguoerluosi,438,138000,Q,124.82351,45.11726
637,634,长岭,长岭县,3,changling,438,131500,C,123.96725,44.27581
638,634,乾安,乾安县,3,qian'an,438,131400,Q,124.02737,45.01068
639,634,扶余,扶余市,3,fuyu,438,131200,F,126.042758,44.986199
641,640,洮北,洮北区,3,taobei,436,137000,,122.85104,45.62167
642,640,镇赉,镇赉县,3,zhenlai,436,137300,Z,123.19924,45.84779
643,640,通榆,通榆县,3,tongyu,436,137200,T,123.08761,44.81388
644,640,洮南,洮南市,3,taonan,436,137100,,122.78772,45.33502
645,640,大安,大安市,3,da'an,436,131300,D,124.29519,45.50846
647,646,延吉,延吉市,3,yanji,433,133000,Y,129.51357,42.90682
648,646,图们,图们市,3,tumen,433,133100,T,129.84381,42.96801
649,646,敦化,敦化市,3,dunhua,433,133700,D,128.23242,43.37304
650,646,珲春,珲春市,3,hunchun,433,133300,,130.36572,42.86242
651,646,龙井,龙井市,3,longjing,433,133400,L,129.42584,42.76804
652,646,和龙,和龙市,3,helong,433,133500,H,129.01077,42.5464
653,646,汪清,汪清县,3,wangqing,433,133200,W,129.77121,43.31278
654,646,安图,安图县,3,antu,433,133600,A,128.90625,43.11533
657,656,道里,道里区,3,daoli,451,150010,D,126.61705,45.75586
658,656,南岗,南岗区,3,nangang,451,150006,N,126.66854,45.75996
659,656,道外,道外区,3,daowai,451,150020,D,126.64938,45.79187
660,656,平房,平房区,3,pingfang,451,150060,P,126.63729,45.59777
661,656,松北,松北区,3,songbei,451,150028,S,126.56276,45.80831
662,656,香坊,香坊区,3,xiangfang,451,150036,X,126.67968,45.72383
663,656,呼兰,呼兰区,3,hulan,451,150500,H,126.58792,45.88895
664,656,阿城,阿城区,3,a'cheng,451,150300,A,126.97525,45.54144
665,656,双城,双城区,3,shuangcheng,451,150100,S,126.308784,45.377942
666,656,依兰,依兰县,3,yilan,451,154800,Y,129.56817,46.3247
667,656,方正,方正县,3,fangzheng,451,150800,F,128.82952,45.85162
668,656,宾县,宾县,3,binxian,451,150400,B,127.48675,45.75504
669,656,巴彦,巴彦县,3,bayan,451,151800,B,127.40799,46.08148
670,656,木兰,木兰县,3,mulan,451,151900,M,128.0448,45.94944
671,656,通河,通河县,3,tonghe,451,150900,T,128.74603,45.99007
672,656,延寿,延寿县,3,yanshou,451,150700,Y,128.33419,45.4554
673,656,尚志,尚志市,3,shangzhi,451,150600,S,127.96191,45.21736
674,656,五常,五常市,3,wuchang,451,150200,W,127.16751,44.93184
676,675,龙沙,龙沙区,3,longsha,452,161000,L,123.95752,47.31776
677,675,建华,建华区,3,jianhua,452,161006,J,124.0133,47.36718
678,675,铁锋,铁锋区,3,tiefeng,452,161000,T,123.97821,47.34075
679,675,昂昂溪,昂昂溪区,3,angangxi,452,161031,A,123.82229,47.15513
680,675,富拉尔基,富拉尔基区,3,fulaerji,452,161041,F,123.62918,47.20884
681,675,碾子山,碾子山区,3,nianzishan,452,161046,N,122.88183,47.51662
682,675,梅里斯,梅里斯达斡尔族区,3,meilisi,452,161021,M,123.75274,47.30946
683,675,龙江,龙江县,3,longjiang,452,161100,L,123.20532,47.33868
684,675,依安,依安县,3,yi'an,452,161500,Y,125.30896,47.8931
685,675,泰来,泰来县,3,tailai,452,162400,T,123.42285,46.39386
686,675,甘南,甘南县,3,gannan,452,162100,G,123.50317,47.92437
687,675,富裕,富裕县,3,fuyu,452,161200,F,124.47457,47.77431
688,675,克山,克山县,3,keshan,452,161600,K,125.87396,48.03265
689,675,克东,克东县,3,kedong,452,164800,K,126.24917,48.03828
690,675,拜泉,拜泉县,3,baiquan,452,164700,B,126.09167,47.60817
691,675,讷河,讷河市,3,nehe,452,161300,,124.87713,48.48388
693,692,鸡冠,鸡冠区,3,jiguan,467,158100,J,130.98139,45.30396
694,692,恒山,恒山区,3,hengshan,467,158130,H,130.90493,45.21071
695,692,滴道,滴道区,3,didao,467,158150,D,130.84841,45.35109
696,692,梨树,梨树区,3,lishu,467,158160,L,130.69848,45.09037
697,692,城子河,城子河区,3,chengzihe,467,158170,C,131.01132,45.33689
698,692,麻山,麻山区,3,mashan,467,158180,M,130.47811,45.21209
699,692,鸡东,鸡东县,3,jidong,467,158200,J,131.12423,45.26025
700,692,虎林,虎林市,3,hulin,467,158400,H,132.93679,45.76291
701,692,密山,密山市,3,mishan,467,158300,M,131.84625,45.5297
703,702,向阳,向阳区,3,xiangyang,468,154100,X,130.2943,47.34247
704,702,工农,工农区,3,gongnong,468,154101,G,130.27468,47.31869
705,702,南山,南山区,3,nanshan,468,154104,N,130.27676,47.31404
706,702,兴安,兴安区,3,xing'an,468,154102,X,130.23965,47.2526
707,702,东山,东山区,3,dongshan,468,154106,D,130.31706,47.33853
708,702,兴山,兴山区,3,xingshan,468,154105,X,130.29271,47.35776
709,702,萝北,萝北县,3,luobei,468,154200,L,130.83346,47.57959
710,702,绥滨,绥滨县,3,suibin,468,156200,S,131.86029,47.2903
712,711,尖山,尖山区,3,jianshan,469,155100,J,131.15841,46.64635
713,711,岭东,岭东区,3,lingdong,469,155120,L,131.16473,46.59043
714,711,四方台,四方台区,3,sifangtai,469,155130,S,131.33593,46.59499
715,711,宝山,宝山区,3,baoshan,469,155131,B,131.4016,46.57718
716,711,集贤,集贤县,3,jixian,469,155900,J,131.14053,46.72678
717,711,友谊,友谊县,3,youyi,469,155800,Y,131.80789,46.76739
718,711,宝清,宝清县,3,baoqing,469,155600,B,132.19695,46.32716
719,711,饶河,饶河县,3,raohe,469,155700,R,134.01986,46.79899
721,720,萨尔图,萨尔图区,3,saertu,459,163001,S,125.08792,46.59359
722,720,龙凤,龙凤区,3,longfeng,459,163711,L,125.11657,46.53273
723,720,让胡路,让胡路区,3,ranghulu,459,163712,R,124.87075,46.6522
724,720,红岗,红岗区,3,honggang,459,163511,H,124.89248,46.40128
725,720,大同,大同区,3,datong,459,163515,D,124.81591,46.03295
726,720,肇州,肇州县,3,zhaozhou,459,166400,Z,125.27059,45.70414
727,720,肇源,肇源县,3,zhaoyuan,459,166500,Z,125.08456,45.52032
728,720,林甸,林甸县,3,lindian,459,166300,L,124.87564,47.18601
729,720,杜尔伯特,杜尔伯特蒙古族自治县,3,duerbote,459,166200,D,124.44937,46.86507
731,730,伊春,伊春区,3,yichun,458,153000,Y,128.90752,47.728
732,730,南岔,南岔区,3,nancha,458,153100,N,129.28362,47.13897
733,730,友好,友好区,3,youhao,458,153031,Y,128.84039,47.85371
734,730,西林,西林区,3,xilin,458,153025,X,129.31201,47.48103
735,730,翠峦,翠峦区,3,cuiluan,458,153013,C,128.66729,47.72503
736,730,新青,新青区,3,xinqing,458,153036,X,129.53653,48.29067
737,730,美溪,美溪区,3,meixi,458,153021,M,129.13708,47.63513
738,730,金山屯,金山屯区,3,jinshantun,458,153026,J,129.43768,47.41349
739,730,五营,五营区,3,wuying,458,153033,W,129.24545,48.10791
740,730,乌马河,乌马河区,3,wumahe,458,153011,W,128.79672,47.728
741,730,汤旺河,汤旺河区,3,tangwanghe,458,153037,T,129.57226,48.45182
742,730,带岭,带岭区,3,dailing,458,153106,D,129.02352,47.02553
743,730,乌伊岭,乌伊岭区,3,wuyiling,458,153038,W,129.43981,48.59602
744,730,红星,红星区,3,hongxing,458,153035,H,129.3887,48.23944
745,730,上甘岭,上甘岭区,3,shangganling,458,153032,S,129.02447,47.97522
746,730,嘉荫,嘉荫县,3,jiayin,458,153200,J,130.39825,48.8917
747,730,铁力,铁力市,3,tieli,458,152500,T,128.0317,46.98571
749,748,向阳,向阳区,3,xiangyang,454,154002,X,130.36519,46.80778
750,748,前进,前进区,3,qianjin,454,154002,Q,130.37497,46.81401
751,748,东风,东风区,3,dongfeng,454,154005,D,130.40366,46.82257
752,748,郊区,郊区,3,jiaoqu,454,154004,J,130.32731,46.80958
753,748,桦南,桦南县,3,huanan,454,154400,,130.55361,46.23921
754,748,桦川,桦川县,3,huachuan,454,154300,,130.71893,47.02297
755,748,汤原,汤原县,3,tangyuan,454,154700,T,129.90966,46.72755
756,748,抚远,抚远县,3,fuyuan,454,156500,F,134.29595,48.36794
757,748,同江,同江市,3,tongjiang,454,156400,T,132.51095,47.64211
758,748,富锦,富锦市,3,fujin,454,156100,F,132.03707,47.25132
760,759,新兴,新兴区,3,xinxing,464,154604,X,130.93212,45.81624
761,759,桃山,桃山区,3,taoshan,464,154600,T,131.01786,45.76782
762,759,茄子河,茄子河区,3,qiezihe,464,154622,Q,131.06807,45.78519
763,759,勃利,勃利县,3,boli,464,154500,B,130.59179,45.755
765,764,东安,东安区,3,dong'an,453,157000,D,129.62665,44.58133
766,764,阳明,阳明区,3,yangming,453,157013,Y,129.63547,44.59603
767,764,爱民,爱民区,3,aimin,453,157009,A,129.59077,44.59648
768,764,西安,西安区,3,xi'an,453,157000,X,129.61616,44.57766
769,764,东宁,东宁县,3,dongning,453,157200,D,131.12793,44.0661
770,764,林口,林口县,3,linkou,453,157600,L,130.28393,45.27809
771,764,绥芬河,绥芬河市,3,suifenhe,453,157300,S,131.15139,44.41249
772,764,海林,海林市,3,hailin,453,157100,H,129.38156,44.59
773,764,宁安,宁安市,3,ning'an,453,157400,N,129.48303,44.34016
774,764,穆棱,穆棱市,3,muling,453,157500,M,130.52465,44.919
776,775,爱辉,爱辉区,3,aihui,456,164300,A,127.50074,50.25202
777,775,嫩江,嫩江县,3,nenjiang,456,161400,N,125.22607,49.17844
778,775,逊克,逊克县,3,xunke,456,164400,X,128.47882,49.57983
779,775,孙吴,孙吴县,3,sunwu,456,164200,S,127.33599,49.42539
780,775,北安,北安市,3,bei'an,456,164000,B,126.48193,48.23872
781,775,五大连池,五大连池市,3,wudalianchi,456,164100,W,126.20294,48.51507
783,782,北林,北林区,3,beilin,455,152000,B,126.98564,46.63735
784,782,望奎,望奎县,3,wangkui,455,152100,W,126.48187,46.83079
785,782,兰西,兰西县,3,lanxi,455,151500,L,126.28994,46.2525
786,782,青冈,青冈县,3,qinggang,455,151600,Q,126.11325,46.68534
787,782,庆安,庆安县,3,qing'an,455,152400,Q,127.50753,46.88016
788,782,明水,明水县,3,mingshui,455,151700,M,125.90594,47.17327
789,782,绥棱,绥棱县,3,suileng,455,152200,S,127.11584,47.24267
790,782,安达,安达市,3,anda,455,151400,A,125.34375,46.4177
791,782,肇东,肇东市,3,zhaodong,455,151100,Z,125.96243,46.05131
792,782,海伦,海伦市,3,hailun,455,152300,H,126.9682,47.46093
794,793,加格达奇,加格达奇区,3,jiagedaqi,457,165000,J,124.30954,51.98144
795,793,新林,新林区,3,xinlin,457,165000,X,124.397983,51.67341
796,793,松岭,松岭区,3,songling,457,165000,S,124.189713,51.985453
797,793,呼中,呼中区,3,huzhong,457,165000,H,123.60009,52.03346
798,793,呼玛,呼玛县,3,huma,457,165100,H,126.66174,51.73112
799,793,塔河,塔河县,3,tahe,457,165200,T,124.70999,52.33431
800,793,漠河,漠河县,3,mohe,457,165300,M,122.53759,52.97003
803,802,黄浦,黄浦区,3,huangpu,21,200001,H,121.49295,31.22337
804,802,徐汇,徐汇区,3,xuhui,21,200030,X,121.43676,31.18831
805,802,长宁,长宁区,3,changning,21,200050,C,121.42462,31.22036
806,802,静安,静安区,3,jing'an,21,200040,J,121.4444,31.22884
807,802,普陀,普陀区,3,putuo,21,200333,P,121.39703,31.24951
808,802,闸北,闸北区,3,zhabei,21,200070,Z,121.44636,31.28075
809,802,虹口,虹口区,3,hongkou,21,200086,H,121.48162,31.27788
810,802,杨浦,杨浦区,3,yangpu,21,200082,Y,121.526,31.2595
811,802,闵行,闵行区,3,minhang,21,201100,,121.38162,31.11246
812,802,宝山,宝山区,3,baoshan,21,201900,B,121.4891,31.4045
813,802,嘉定,嘉定区,3,jiading,21,201800,J,121.2655,31.37473
814,802,浦东,浦东新区,3,pudong,21,200135,P,121.5447,31.22249
815,802,金山,金山区,3,jinshan,21,200540,J,121.34164,30.74163
816,802,松江,松江区,3,songjiang,21,201600,S,121.22879,31.03222
817,802,青浦,青浦区,3,qingpu,21,201700,Q,121.12417,31.14974
818,802,奉贤,奉贤区,3,fengxian,21,201400,F,121.47412,30.9179
819,802,崇明,崇明县,3,chongming,21,202150,C,121.39758,31.62278
822,821,玄武,玄武区,3,xuanwu,25,210018,X,118.79772,32.04856
823,821,秦淮,秦淮区,3,qinhuai,25,210001,Q,118.79815,32.01112
824,821,建邺,建邺区,3,jianye,25,210004,J,118.76641,32.03096
825,821,鼓楼,鼓楼区,3,gulou,25,210009,G,118.76974,32.06632
826,821,浦口,浦口区,3,pukou,25,211800,P,118.62802,32.05881
827,821,栖霞,栖霞区,3,qixia,25,210046,Q,118.88064,32.11352
828,821,雨花台,雨花台区,3,yuhuatai,25,210012,Y,118.7799,31.99202
829,821,江宁,江宁区,3,jiangning,25,211100,J,118.8399,31.95263
830,821,六合,六合区,3,luhe,25,211500,L,118.8413,32.34222
831,821,溧水,溧水区,3,lishui,25,211200,,119.028732,31.653061
832,821,高淳,高淳区,3,gaochun,25,211300,G,118.87589,31.327132
834,833,崇安,崇安区,3,chong'an,510,214001,C,120.29975,31.58002
835,833,南长,南长区,3,nanchang,510,214021,N,120.30873,31.56359
836,833,北塘,北塘区,3,beitang,510,214044,B,120.29405,31.60592
837,833,锡山,锡山区,3,xishan,510,214101,X,120.35699,31.5886
838,833,惠山,惠山区,3,huishan,510,214174,H,120.29849,31.68088
839,833,滨湖,滨湖区,3,binhu,510,214123,B,120.29461,31.52162
840,833,江阴,江阴市,3,jiangyin,510,214431,J,120.2853,31.91996
841,833,宜兴,宜兴市,3,yixing,510,214200,Y,119.82357,31.33978
843,842,鼓楼,鼓楼区,3,gulou,516,221005,G,117.18559,34.28851
844,842,云龙,云龙区,3,yunlong,516,221007,Y,117.23053,34.24895
845,842,贾汪,贾汪区,3,jiawang,516,221003,J,117.45346,34.44264
846,842,泉山,泉山区,3,quanshan,516,221006,Q,117.19378,34.24418
847,842,铜山,铜山区,3,tongshan,516,221106,T,117.183894,34.19288
848,842,丰县,丰县,3,fengxian,516,221700,F,116.59957,34.69972
849,842,沛县,沛县,3,peixian,516,221600,P,116.93743,34.72163
850,842,睢宁,睢宁县,3,suining,516,221200,,117.94104,33.91269
851,842,新沂,新沂市,3,xinyi,516,221400,X,118.35452,34.36942
852,842,邳州,邳州市,3,pizhou,516,221300,,117.95858,34.33329
854,853,天宁,天宁区,3,tianning,519,213000,T,119.95132,31.75211
855,853,钟楼,钟楼区,3,zhonglou,519,213023,Z,119.90178,31.80221
856,853,戚墅堰,戚墅堰区,3,qishuyan,519,213025,Q,120.06106,31.71956
857,853,新北,新北区,3,xinbei,519,213022,X,119.97131,31.83046
858,853,武进,武进区,3,wujin,519,213100,W,119.94244,31.70086
859,853,溧阳,溧阳市,3,liyang,519,213300,,119.4837,31.41538
860,853,金坛,金坛市,3,jintan,519,213200,J,119.57757,31.74043
862,861,虎丘,虎丘区,3,huqiu,512,215004,H,120.57345,31.2953
863,861,吴中,吴中区,3,wuzhong,512,215128,W,120.63211,31.26226
864,861,相城,相城区,3,xiangcheng,512,215131,X,120.64239,31.36889
865,861,姑苏,姑苏区,3,gusu,512,215031,G,120.619585,31.299379
866,861,吴江,吴江区,3,wujiang,512,215200,W,120.638317,31.159815
867,861,常熟,常熟市,3,changshu,512,215500,C,120.75225,31.65374
868,861,张家港,张家港市,3,zhangjiagang,512,215600,Z,120.55538,31.87532
869,861,昆山,昆山市,3,kunshan,512,215300,K,120.98074,31.38464
870,861,太仓,太仓市,3,taicang,512,215400,T,121.10891,31.4497
872,871,崇川,崇川区,3,chongchuan,513,226001,C,120.8573,32.0098
873,871,港闸,港闸区,3,gangzha,513,226001,G,120.81778,32.03163
874,871,通州,通州区,3,tongzhou,513,226300,T,121.07293,32.0676
875,871,海安,海安县,3,hai'an,513,226600,H,120.45852,32.54514
876,871,如东,如东县,3,rudong,513,226400,R,121.18942,32.31439
877,871,启东,启东市,3,qidong,513,226200,Q,121.65985,31.81083
878,871,如皋,如皋市,3,rugao,513,226500,R,120.55969,32.37597
879,871,海门,海门市,3,haimen,513,226100,H,121.16995,31.89422
881,880,连云,连云区,3,lianyun,518,222042,L,119.37304,34.75293
882,880,海州,海州区,3,haizhou,518,222003,H,119.13128,34.56986
883,880,赣榆,赣榆区,3,ganyu,518,222100,G,119.128774,34.839154
884,880,东海,东海县,3,donghai,518,222300,D,118.77145,34.54215
885,880,灌云,灌云县,3,guanyun,518,222200,G,119.23925,34.28391
886,880,灌南,灌南县,3,guannan,518,222500,G,119.35632,34.09
888,887,清河,清河区,3,qinghe,517,223001,Q,119.00778,33.59949
889,887,淮安,淮安区,3,huai'an,517,223200,H,119.021265,33.597506
890,887,淮阴,淮阴区,3,huaiyin,517,223300,H,119.03485,33.63171
891,887,清浦,清浦区,3,qingpu,517,223002,Q,119.02648,33.55232
892,887,涟水,涟水县,3,lianshui,517,223400,L,119.26083,33.78094
893,887,洪泽,洪泽县,3,hongze,517,223100,H,118.87344,33.29429
894,887,盱眙,盱眙县,3,xuyi,517,211700,,118.54495,33.01086
895,887,金湖,金湖县,3,jinhu,517,211600,J,119.02307,33.02219
897,896,亭湖,亭湖区,3,tinghu,515,224005,T,120.16583,33.37825
898,896,盐都,盐都区,3,yandu,515,224055,Y,120.15441,33.3373
899,896,响水,响水县,3,xiangshui,515,224600,X,119.56985,34.20513
900,896,滨海,滨海县,3,binhai,515,224500,B,119.82058,33.98972
901,896,阜宁,阜宁县,3,funing,515,224400,F,119.80175,33.78228
902,896,射阳,射阳县,3,sheyang,515,224300,S,120.26043,33.77636
903,896,建湖,建湖县,3,jianhu,515,224700,J,119.79852,33.47241
904,896,东台,东台市,3,dongtai,515,224200,D,120.32376,32.85078
905,896,大丰,大丰市,3,dafeng,515,224100,D,120.46594,33.19893
907,906,广陵,广陵区,3,guangling,514,225002,G,119.43186,32.39472
908,906,邗江,邗江区,3,hanjiang,514,225002,,119.39816,32.3765
909,906,江都,江都区,3,jiangdu,514,225200,J,119.567481,32.426564
910,906,宝应,宝应县,3,baoying,514,225800,B,119.31213,33.23549
911,906,仪征,仪征市,3,yizheng,514,211400,Y,119.18432,32.27197
912,906,高邮,高邮市,3,gaoyou,514,225600,G,119.45965,32.78135
914,913,京口,京口区,3,jingkou,511,212003,J,119.46947,32.19809
915,913,润州,润州区,3,runzhou,511,212005,R,119.41134,32.19523
916,913,丹徒,丹徒区,3,dantu,511,212028,D,119.43383,32.13183
917,913,丹阳,丹阳市,3,danyang,511,212300,D,119.57525,31.99121
918,913,扬中,扬中市,3,yangzhong,511,212200,Y,119.79718,32.2363
919,913,句容,句容市,3,jurong,511,212400,J,119.16482,31.95591
921,920,海陵,海陵区,3,hailing,523,225300,H,119.91942,32.49101
922,920,高港,高港区,3,gaogang,523,225321,G,119.88089,32.31833
923,920,姜堰,姜堰区,3,jiangyan,523,225500,J,120.148208,32.508483
924,920,兴化,兴化市,3,xinghua,523,225700,X,119.85238,32.90944
925,920,靖江,靖江市,3,jingjiang,523,214500,J,120.27291,32.01595
926,920,泰兴,泰兴市,3,taixing,523,225400,T,120.05194,32.17187
928,927,宿城,宿城区,3,sucheng,527,223800,S,118.29141,33.94219
929,927,宿豫,宿豫区,3,suyu,527,223800,S,118.32922,33.94673
930,927,沭阳,沭阳县,3,shuyang,527,223600,,118.76873,34.11446
931,927,泗阳,泗阳县,3,siyang,527,223700,,118.7033,33.72096
932,927,泗洪,泗洪县,3,sihong,527,223900,,118.21716,33.45996
935,934,上城,上城区,3,shangcheng,571,310002,S,120.16922,30.24255
936,934,下城,下城区,3,xiacheng,571,310006,X,120.18096,30.28153
937,934,江干,江干区,3,jianggan,571,310016,J,120.20517,30.2572
938,934,拱墅,拱墅区,3,gongshu,571,310011,G,120.14209,30.31968
939,934,西湖,西湖区,3,xihu,571,310013,X,120.12979,30.25949
940,934,滨江,滨江区,3,binjiang,571,310051,B,120.21194,30.20835
941,934,萧山,萧山区,3,xiaoshan,571,311200,X,120.26452,30.18505
942,934,余杭,余杭区,3,yuhang,571,311100,Y,120.29986,30.41829
943,934,桐庐,桐庐县,3,tonglu,571,311500,T,119.68853,29.79779
944,934,淳安,淳安县,3,chun'an,571,311700,C,119.04257,29.60988
945,934,建德,建德市,3,jiande,571,311600,J,119.28158,29.47603
946,934,富阳,富阳区,3,fuyang,571,311400,F,119.96041,30.04878
947,934,临安,临安市,3,lin'an,571,311300,L,119.72473,30.23447
949,948,海曙,海曙区,3,haishu,574,315000,H,121.55106,29.85977
950,948,江东,江东区,3,jiangdong,574,315040,J,121.57028,29.86701
951,948,江北,江北区,3,jiangbei,574,315020,J,121.55681,29.88776
952,948,北仑,北仑区,3,beilun,574,315800,B,121.84408,29.90069
953,948,镇海,镇海区,3,zhenhai,574,315200,Z,121.71615,29.94893
954,948,鄞州,鄞州区,3,yinzhou,574,315100,,121.54754,29.81614
955,948,象山,象山县,3,xiangshan,574,315700,X,121.86917,29.47758
956,948,宁海,宁海县,3,ninghai,574,315600,N,121.43072,29.2889
957,948,余姚,余姚市,3,yuyao,574,315400,Y,121.15341,30.03867
958,948,慈溪,慈溪市,3,cixi,574,315300,C,121.26641,30.16959
959,948,奉化,奉化市,3,fenghua,574,315500,F,121.41003,29.65537
961,960,鹿城,鹿城区,3,lucheng,577,325000,L,120.65505,28.01489
962,960,龙湾,龙湾区,3,longwan,577,325013,L,120.83053,27.91284
963,960,瓯海,瓯海区,3,ouhai,577,325005,,120.63751,28.00714
964,960,洞头,洞头县,3,dongtou,577,325700,D,121.15606,27.83634
965,960,永嘉,永嘉县,3,yongjia,577,325100,Y,120.69317,28.15456
966,960,平阳,平阳县,3,pingyang,577,325400,P,120.56506,27.66245
967,960,苍南,苍南县,3,cangnan,577,325800,C,120.42608,27.51739
968,960,文成,文成县,3,wencheng,577,325300,W,120.09063,27.78678
969,960,泰顺,泰顺县,3,taishun,577,325500,T,119.7182,27.55694
970,960,瑞安,瑞安市,3,rui'an,577,325200,R,120.65466,27.78041
971,960,乐清,乐清市,3,yueqing,577,325600,L,120.9617,28.12404
973,972,南湖,南湖区,3,nanhu,573,314051,N,120.78524,30.74865
974,972,秀洲,秀洲区,3,xiuzhou,573,314031,X,120.70867,30.76454
975,972,嘉善,嘉善县,3,jiashan,573,314100,J,120.92559,30.82993
976,972,海盐,海盐县,3,haiyan,573,314300,H,120.9457,30.52547
977,972,海宁,海宁市,3,haining,573,314400,H,120.6813,30.5097
978,972,平湖,平湖市,3,pinghu,573,314200,P,121.02166,30.69618
979,972,桐乡,桐乡市,3,tongxiang,573,314500,T,120.56485,30.6302
981,980,吴兴,吴兴区,3,wuxing,572,313000,W,120.12548,30.85752
982,980,南浔,南浔区,3,nanxun,572,313009,N,120.42038,30.86686
983,980,德清,德清县,3,deqing,572,313200,D,119.97836,30.53369
984,980,长兴,长兴县,3,changxing,572,313100,C,119.90783,31.00606
985,980,安吉,安吉县,3,anji,572,313300,A,119.68158,30.63798
987,986,越城,越城区,3,yuecheng,575,312000,Y,120.5819,29.98895
988,986,柯桥,柯桥区,3,keqiao,575,312030,K,120.492736,30.08763
989,986,上虞,上虞区,3,shangyu,575,312300,S,120.476075,30.078038
990,986,新昌,新昌县,3,xinchang,575,312500,X,120.90435,29.49991
991,986,诸暨,诸暨市,3,zhuji,575,311800,Z,120.23629,29.71358
992,986,嵊州,嵊州市,3,shengzhou,575,312400,,120.82174,29.58854
994,993,婺城,婺城区,3,wucheng,579,321000,,119.57135,29.09521
995,993,金东,金东区,3,jindong,579,321000,J,119.69302,29.0991
996,993,武义,武义县,3,wuyi,579,321200,W,119.8164,28.89331
997,993,浦江,浦江县,3,pujiang,579,322200,P,119.89181,29.45353
998,993,磐安,磐安县,3,pan'an,579,322300,P,120.45022,29.05733
999,993,兰溪,兰溪市,3,lanxi,579,321100,L,119.45965,29.20841
1000,993,义乌,义乌市,3,yiwu,579,322000,Y,120.0744,29.30558
1001,993,东阳,东阳市,3,dongyang,579,322100,D,120.24185,29.28942
1002,993,永康,永康市,3,yongkang,579,321300,Y,120.04727,28.88844
1004,1003,柯城,柯城区,3,kecheng,570,324100,K,118.87109,28.96858
1005,1003,衢江,衢江区,3,qujiang,570,324022,,118.9598,28.97977
1006,1003,常山,常山县,3,changshan,570,324200,C,118.51025,28.90191
1007,1003,开化,开化县,3,kaihua,570,324300,K,118.41616,29.13785
1008,1003,龙游,龙游县,3,longyou,570,324400,L,119.17221,29.02823
1009,1003,江山,江山市,3,jiangshan,570,324100,J,118.62674,28.7386
1011,1010,定海,定海区,3,dinghai,580,316000,D,122.10677,30.01985
1012,1010,普陀,普陀区,3,putuo,580,316100,P,122.30278,29.94908
1013,1010,岱山,岱山县,3,daishan,580,316200,,122.20486,30.24385
1014,1010,嵊泗,嵊泗县,3,shengsi,580,202450,,122.45129,30.72678
1016,1015,椒江,椒江区,3,jiaojiang,576,318000,J,121.44287,28.67301
1017,1015,黄岩,黄岩区,3,huangyan,576,318020,H,121.25891,28.65077
1018,1015,路桥,路桥区,3,luqiao,576,318050,L,121.37381,28.58016
1019,1015,玉环,玉环县,3,yuhuan,576,317600,Y,121.23242,28.13637
1020,1015,三门,三门县,3,sanmen,576,317100,S,121.3937,29.1051
1021,1015,天台,天台县,3,tiantai,576,317200,T,121.00848,29.1429
1022,1015,仙居,仙居县,3,xianju,576,317300,X,120.72872,28.84672
1023,1015,温岭,温岭市,3,wenling,576,317500,W,121.38595,28.37176
1024,1015,临海,临海市,3,linhai,576,317000,L,121.13885,28.85603
1026,1025,莲都,莲都区,3,liandu,578,323000,L,119.9127,28.44583
1027,1025,青田,青田县,3,qingtian,578,323900,Q,120.29028,28.13897
1028,1025,缙云,缙云县,3,jinyun,578,321400,,120.09036,28.65944
1029,1025,遂昌,遂昌县,3,suichang,578,323300,S,119.27606,28.59291
1030,1025,松阳,松阳县,3,songyang,578,323400,S,119.48199,28.4494
1031,1025,云和,云和县,3,yunhe,578,323600,Y,119.57287,28.11643
1032,1025,庆元,庆元县,3,qingyuan,578,323800,Q,119.06256,27.61842
1033,1025,景宁,景宁畲族自治县,3,jingning,578,323500,J,119.63839,27.97393
1034,1025,龙泉,龙泉市,3,longquan,578,323700,L,119.14163,28.0743
1036,1035,金塘,金塘岛,3,jintang,580,316000,J,121.893373,30.040641
1037,1035,六横,六横岛,3,liuheng,580,316000,L,122.14265,29.662938
1038,1035,衢山,衢山岛,3,qushan,580,316000,,122.358425,30.442642
1039,1035,舟山,舟山本岛西北部,3,zhoushan,580,316000,Z,122.03064,30.140377
1040,1035,岱山,岱山岛西南部,3,daishan,580,316000,,122.180123,30.277269
1041,1035,泗礁,泗礁岛,3,sijiao,580,316000,,122.45803,30.725112
1042,1035,朱家尖,朱家尖岛,3,zhujiajian,580,316000,Z,122.390636,29.916303
1043,1035,洋山,洋山岛,3,yangshan,580,316000,Y,121.995891,30.094637
1044,1035,长涂,长涂岛,3,changtu,580,316000,C,122.284681,30.24888
1045,1035,虾峙,虾峙岛,3,xiazhi,580,316000,X,122.244686,29.752941
1048,1047,瑶海,瑶海区,3,yaohai,551,230011,Y,117.30947,31.85809
1049,1047,庐阳,庐阳区,3,luyang,551,230001,L,117.26452,31.87874
1050,1047,蜀山,蜀山区,3,shushan,551,230031,S,117.26104,31.85117
1051,1047,包河,包河区,3,baohe,551,230041,B,117.30984,31.79502
1052,1047,长丰,长丰县,3,changfeng,551,231100,C,117.16549,32.47959
1053,1047,肥东,肥东县,3,feidong,551,231600,F,117.47128,31.88525
1054,1047,肥西,肥西县,3,feixi,551,231200,F,117.16845,31.72143
1055,1047,庐江,庐江县,3,lujiang,565,231500,L,117.289844,31.251488
1056,1047,巢湖,巢湖市,3,chaohu,565,238000,C,117.874155,31.600518
1058,1057,镜湖,镜湖区,3,jinghu,553,241000,J,118.38525,31.34038
1059,1057,弋江,弋江区,3,yijiang,553,241000,,118.37265,31.31178
1060,1057,鸠江,鸠江区,3,jiujiang,553,241000,,118.39215,31.36928
1061,1057,三山,三山区,3,sanshan,553,241000,S,118.22509,31.20703
1062,1057,芜湖,芜湖县,3,wuhu,553,241100,W,118.57525,31.13476
1063,1057,繁昌,繁昌县,3,fanchang,553,241200,F,118.19982,31.08319
1064,1057,南陵,南陵县,3,nanling,553,242400,N,118.33688,30.91969
1065,1057,无为,无为县,3,wuwei,565,238300,W,117.911432,31.303075
1067,1066,龙子湖,龙子湖区,3,longzihu,552,233000,L,117.39379,32.94301
1068,1066,蚌山,蚌山区,3,bengshan,552,233000,B,117.36767,32.94411
1069,1066,禹会,禹会区,3,yuhui,552,233010,Y,117.35315,32.93336
1070,1066,淮上,淮上区,3,huaishang,552,233002,H,117.35983,32.96423
1071,1066,怀远,怀远县,3,huaiyuan,552,233400,H,117.20507,32.97007
1072,1066,五河,五河县,3,wuhe,552,233300,W,117.89144,33.14457
1073,1066,固镇,固镇县,3,guzhen,552,233700,G,117.31558,33.31803
1075,1074,大通,大通区,3,datong,554,232033,D,117.05255,32.63265
1076,1074,田家庵,田家庵区,3,tianjiaan,554,232000,T,117.01739,32.64697
1077,1074,谢家集,谢家集区,3,xiejiaji,554,232052,X,116.86377,32.59818
1078,1074,八公山,八公山区,3,bagongshan,554,232072,B,116.83694,32.62941
1079,1074,潘集,潘集区,3,panji,554,232082,P,116.81622,32.78287
1080,1074,凤台,凤台县,3,fengtai,554,232100,F,116.71569,32.70752
1082,1081,花山,花山区,3,huashan,555,243000,H,118.51231,31.7001
1083,1081,雨山,雨山区,3,yushan,555,243071,Y,118.49869,31.68219
1084,1081,博望,博望区,3,bowang,555,243131,B,118.844387,31.561871
1085,1081,当涂,当涂县,3,dangtu,555,243100,D,118.49786,31.57098
1086,1081,含山,含山县,3,hanshan,555,238100,H,118.105545,31.727758
1087,1081,和县,和县,3,hexian,555,238200,H,118.351405,31.741794
1089,1088,杜集,杜集区,3,duji,561,235000,D,116.82998,33.99363
1090,1088,相山,相山区,3,xiangshan,561,235000,X,116.79464,33.95979
1091,1088,烈山,烈山区,3,lieshan,561,235000,L,116.81448,33.89355
1092,1088,濉溪,濉溪县,3,suixi,561,235100,,116.76785,33.91455
1094,1093,铜官山,铜官山区,3,tongguanshan,562,244000,T,117.81525,30.93423
1095,1093,狮子山,狮子山区,3,shizishan,562,244000,S,117.89178,30.92631
1096,1093,郊区,郊区,3,jiaoqu,562,244000,J,117.80868,30.91976
1097,1093,铜陵,铜陵县,3,tongling,562,244100,T,117.79113,30.95365
1099,1098,迎江,迎江区,3,yingjiang,556,246001,Y,117.0493,30.50421
1100,1098,大观,大观区,3,daguan,556,246002,D,117.03426,30.51216
1101,1098,宜秀,宜秀区,3,yixiu,556,246003,Y,117.06127,30.50783
1102,1098,怀宁,怀宁县,3,huaining,556,246100,H,116.82968,30.73376
1103,1098,枞阳,枞阳县,3,zongyang,556,246700,,117.22015,30.69956
1104,1098,潜山,潜山县,3,qianshan,556,246300,Q,116.57574,30.63037
1105,1098,太湖,太湖县,3,taihu,556,246400,T,116.3088,30.4541
1106,1098,宿松,宿松县,3,susong,556,246500,S,116.12915,30.1536
1107,1098,望江,望江县,3,wangjiang,556,246200,W,116.68814,30.12585
1108,1098,岳西,岳西县,3,yuexi,556,246600,Y,116.35995,30.84983
1109,1098,桐城,桐城市,3,tongcheng,556,231400,T,116.95071,31.05216
1111,1110,屯溪,屯溪区,3,tunxi,559,245000,T,118.33368,29.71138
1112,1110,黄山,黄山区,3,huangshan,559,242700,H,118.1416,30.2729
1113,1110,徽州,徽州区,3,huizhou,559,245061,H,118.33654,29.82784
1114,1110,歙县,歙县,3,shexian,559,245200,,118.43676,29.86745
1115,1110,休宁,休宁县,3,xiuning,559,245400,X,118.18136,29.78607
1116,1110,黟县,黟县,3,yixian,559,245500,,117.94137,29.92588
1117,1110,祁门,祁门县,3,qimen,559,245600,Q,117.71847,29.85723
1119,1118,琅琊,琅琊区,3,langya,550,239000,L,118.30538,32.29521
1120,1118,南谯,南谯区,3,nanqiao,550,239000,N,118.31222,32.31861
1121,1118,来安,来安县,3,lai'an,550,239200,L,118.43438,32.45176
1122,1118,全椒,全椒县,3,quanjiao,550,239500,Q,118.27291,32.08524
1123,1118,定远,定远县,3,dingyuan,550,233200,D,117.68035,32.52488
1124,1118,凤阳,凤阳县,3,fengyang,550,233100,F,117.56454,32.86507
1125,1118,天长,天长市,3,tianchang,550,239300,T,118.99868,32.69124
1126,1118,明光,明光市,3,mingguang,550,239400,M,117.99093,32.77819
1128,1127,颍州,颍州区,3,yingzhou,558,236001,,115.80694,32.88346
1129,1127,颍东,颍东区,3,yingdong,558,236058,,115.85659,32.91296
1130,1127,颍泉,颍泉区,3,yingquan,558,236045,,115.80712,32.9249
1131,1127,临泉,临泉县,3,linquan,558,236400,L,115.26232,33.06758
1132,1127,太和,太和县,3,taihe,558,236600,T,115.62191,33.16025
1133,1127,阜南,阜南县,3,funan,558,236300,F,115.58563,32.63551
1134,1127,颍上,颍上县,3,yingshang,558,236200,,116.26458,32.62998
1135,1127,界首,界首市,3,jieshou,558,236500,J,115.37445,33.25714
1137,1136,埇桥,埇桥区,3,yongqiao,557,234000,,116.97731,33.64058
1138,1136,砀山,砀山县,3,dangshan,557,235300,,116.35363,34.42356
1139,1136,萧县,萧县,3,xiaoxian,557,235200,X,116.94546,34.1879
1140,1136,灵璧,灵璧县,3,lingbi,557,234200,L,117.55813,33.54339
1141,1136,泗县,泗县,3,sixian,557,234300,,117.91033,33.48295
1143,1142,金安,金安区,3,jin'an,564,237005,J,116.50912,31.75573
1144,1142,裕安,裕安区,3,yu'an,564,237010,Y,116.47985,31.73787
1145,1142,寿县,寿县,3,shouxian,564,232200,S,116.78466,32.57653
1146,1142,霍邱,霍邱县,3,huoqiu,564,237400,H,116.27795,32.353
1147,1142,舒城,舒城县,3,shucheng,564,231300,S,116.94491,31.46413
1148,1142,金寨,金寨县,3,jinzhai,564,237300,J,115.93463,31.7351
1149,1142,霍山,霍山县,3,huoshan,564,237200,H,116.33291,31.3929
1151,1150,谯城,谯城区,3,qiaocheng,558,236800,,115.77941,33.87532
1152,1150,涡阳,涡阳县,3,guoyang,558,233600,W,116.21682,33.50911
1153,1150,蒙城,蒙城县,3,mengcheng,558,233500,M,116.5646,33.26477
1154,1150,利辛,利辛县,3,lixin,558,236700,L,116.208,33.14198
1156,1155,贵池,贵池区,3,guichi,566,247100,G,117.48722,30.65283
1157,1155,东至,东至县,3,dongzhi,566,247200,D,117.02719,30.0969
1158,1155,石台,石台县,3,shitai,566,245100,S,117.48666,30.21042
1159,1155,青阳,青阳县,3,qingyang,566,242800,Q,117.84744,30.63932
1161,1160,宣州,宣州区,3,xuanzhou,563,242000,X,118.75462,30.94439
1162,1160,郎溪,郎溪县,3,langxi,563,242100,L,119.17923,31.12599
1163,1160,广德,广德县,3,guangde,563,242200,G,119.41769,30.89371
1164,1160,泾县,泾县,3,jingxian,563,242500,,118.41964,30.69498
1165,1160,绩溪,绩溪县,3,jixi,563,245300,J,118.59765,30.07069
1166,1160,旌德,旌德县,3,jingde,563,242600,,118.54299,30.28898
1167,1160,宁国,宁国市,3,ningguo,563,242300,N,118.98349,30.6238
1170,1169,鼓楼,鼓楼区,3,gulou,591,350001,G,119.30384,26.08225
1171,1169,台江,台江区,3,taijiang,591,350004,T,119.30899,26.06204
1172,1169,仓山,仓山区,3,cangshan,591,350007,C,119.31543,26.04335
1173,1169,马尾,马尾区,3,mawei,591,350015,M,119.4555,25.98942
1174,1169,晋安,晋安区,3,jin'an,591,350011,J,119.32828,26.0818
1175,1169,闽侯,闽侯县,3,minhou,591,350100,M,119.13388,26.15014
1176,1169,连江,连江县,3,lianjiang,591,350500,L,119.53433,26.19466
1177,1169,罗源,罗源县,3,luoyuan,591,350600,L,119.5509,26.48752
1178,1169,闽清,闽清县,3,minqing,591,350800,M,118.8623,26.21901
1179,1169,永泰,永泰县,3,yongtai,591,350700,Y,118.936,25.86816
1180,1169,平潭,平潭县,3,pingtan,591,350400,P,119.791197,25.503672
1181,1169,福清,福清市,3,fuqing,591,350300,F,119.38507,25.72086
1182,1169,长乐,长乐市,3,changle,591,350200,C,119.52313,25.96276
1184,1183,思明,思明区,3,siming,592,361001,S,118.08233,24.44543
1185,1183,海沧,海沧区,3,haicang,592,361026,H,118.03289,24.48461
1186,1183,湖里,湖里区,3,huli,592,361006,H,118.14621,24.51253
1187,1183,集美,集美区,3,jimei,592,361021,J,118.09719,24.57584
1188,1183,同安,同安区,3,tong'an,592,361100,T,118.15197,24.72308
1189,1183,翔安,翔安区,3,xiang'an,592,361101,X,118.24783,24.61863
1191,1190,城厢,城厢区,3,chengxiang,594,351100,C,118.99462,25.41872
1192,1190,涵江,涵江区,3,hanjiang,594,351111,H,119.11621,25.45876
1193,1190,荔城,荔城区,3,licheng,594,351100,L,119.01339,25.43369
1194,1190,秀屿,秀屿区,3,xiuyu,594,351152,X,119.10553,25.31831
1195,1190,仙游,仙游县,3,xianyou,594,351200,X,118.69177,25.36214
1197,1196,梅列,梅列区,3,meilie,598,365000,M,117.64585,26.27171
1198,1196,三元,三元区,3,sanyuan,598,365001,S,117.60788,26.23372
1199,1196,明溪,明溪县,3,mingxi,598,365200,M,117.20498,26.35294
1200,1196,清流,清流县,3,qingliu,598,365300,Q,116.8146,26.17144
1201,1196,宁化,宁化县,3,ninghua,598,365400,N,116.66101,26.25874
1202,1196,大田,大田县,3,datian,598,366100,D,117.8471,25.6926
1203,1196,尤溪,尤溪县,3,youxi,598,365100,Y,118.19049,26.17002
1204,1196,沙县,沙县,3,shaxian,598,365500,S,117.79266,26.39615
1205,1196,将乐,将乐县,3,jiangle,598,353300,J,117.47317,26.72837
1206,1196,泰宁,泰宁县,3,taining,598,354400,T,117.17578,26.9001
1207,1196,建宁,建宁县,3,jianning,598,354500,J,116.84603,26.83091
1208,1196,永安,永安市,3,yong'an,598,366000,Y,117.36517,25.94136
1210,1209,鲤城,鲤城区,3,licheng,595,362000,L,118.56591,24.88741
1211,1209,丰泽,丰泽区,3,fengze,595,362000,F,118.61328,24.89119
1212,1209,洛江,洛江区,3,luojiang,595,362011,L,118.67111,24.93984
1213,1209,泉港,泉港区,3,quangang,595,362114,Q,118.91586,25.12005
1214,1209,惠安,惠安县,3,hui'an,595,362100,H,118.79687,25.03059
1215,1209,安溪,安溪县,3,anxi,595,362400,A,118.18719,25.05627
1216,1209,永春,永春县,3,yongchun,595,362600,Y,118.29437,25.32183
1217,1209,德化,德化县,3,dehua,595,362500,D,118.24176,25.49224
1218,1209,金门,金门县,3,jinmen,,,J,118.32263,24.42922
1219,1209,石狮,石狮市,3,shishi,595,362700,S,118.64779,24.73242
1220,1209,晋江,晋江市,3,jinjiang,595,362200,J,118.55194,24.78141
1221,1209,南安,南安市,3,nan'an,595,362300,N,118.38589,24.96055
1223,1222,芗城,芗城区,3,xiangcheng,596,363000,,117.65402,24.51081
1224,1222,龙文,龙文区,3,longwen,596,363005,L,117.70971,24.50323
1225,1222,云霄,云霄县,3,yunxiao,596,363300,Y,117.34051,23.95534
1226,1222,漳浦,漳浦县,3,zhangpu,596,363200,Z,117.61367,24.11706
1227,1222,诏安,诏安县,3,zhao'an,596,363500,,117.17501,23.71148
1228,1222,长泰,长泰县,3,changtai,596,363900,C,117.75924,24.62526
1229,1222,东山,东山县,3,dongshan,596,363400,D,117.42822,23.70109
1230,1222,南靖,南靖县,3,nanjing,596,363600,N,117.35736,24.51448
1231,1222,平和,平和县,3,pinghe,596,363700,P,117.3124,24.36395
1232,1222,华安,华安县,3,hua'an,596,363800,H,117.54077,25.00563
1233,1222,龙海,龙海市,3,longhai,596,363100,L,117.81802,24.44655
1235,1234,延平,延平区,3,yanping,600,353000,Y,118.18189,26.63745
1236,1234,建阳,建阳区,3,jianyang,599,354200,J,118.12267,27.332067
1237,1234,顺昌,顺昌县,3,shunchang,605,353200,S,117.8103,26.79298
1238,1234,浦城,浦城县,3,pucheng,606,353400,P,118.54007,27.91888
1239,1234,光泽,光泽县,3,guangze,607,354100,G,117.33346,27.54231
1240,1234,松溪,松溪县,3,songxi,608,353500,S,118.78533,27.52624
1241,1234,政和,政和县,3,zhenghe,609,353600,Z,118.85571,27.36769
1242,1234,邵武,邵武市,3,shaowu,601,354000,S,117.4924,27.34033
1243,1234,武夷山,武夷山市,3,wuyishan,602,354300,W,118.03665,27.75543
1244,1234,建瓯,建瓯市,3,jianou,603,353100,J,118.29766,27.02301
1246,1245,新罗,新罗区,3,xinluo,597,364000,X,117.03693,25.09834
1247,1245,长汀,长汀县,3,changting,597,366300,C,116.35888,25.82773
1248,1245,永定,永定区,3,yongding,597,364100,Y,116.73199,24.72302
1249,1245,上杭,上杭县,3,shanghang,597,364200,S,116.42022,25.04943
1250,1245,武平,武平县,3,wuping,597,364300,W,116.10229,25.09244
1251,1245,连城,连城县,3,liancheng,597,366200,L,116.75454,25.7103
1252,1245,漳平,漳平市,3,zhangping,597,364400,Z,117.41992,25.29109
1254,1253,蕉城,蕉城区,3,jiaocheng,593,352100,J,119.52643,26.66048
1255,1253,霞浦,霞浦县,3,xiapu,593,355100,X,119.99893,26.88578
1256,1253,古田,古田县,3,gutian,593,352200,G,118.74688,26.57682
1257,1253,屏南,屏南县,3,pingnan,593,352300,P,118.98861,26.91099
1258,1253,寿宁,寿宁县,3,shouning,593,355500,S,119.5039,27.45996
1259,1253,周宁,周宁县,3,zhouning,593,355400,Z,119.33837,27.10664
1260,1253,柘荣,柘荣县,3,zherong,593,355300,,119.89971,27.23543
1261,1253,福安,福安市,3,fu'an,593,355000,F,119.6495,27.08673
1262,1253,福鼎,福鼎市,3,fuding,593,355200,F,120.21664,27.3243
1265,1264,东湖,东湖区,3,donghu,791,330006,D,115.8988,28.68505
1266,1264,西湖,西湖区,3,xihu,791,330009,X,115.87728,28.65688
1267,1264,青云谱,青云谱区,3,qingyunpu,791,330001,Q,115.915,28.63199
1268,1264,湾里,湾里区,3,wanli,791,330004,W,115.73104,28.71529
1269,1264,青山湖,青山湖区,3,qingshanhu,791,330029,Q,115.9617,28.68206
1270,1264,南昌,南昌县,3,nanchang,791,330200,N,115.94393,28.54559
1271,1264,新建,新建县,3,xinjian,791,330100,X,115.81546,28.69248
1272,1264,安义,安义县,3,anyi,791,330500,A,115.54879,28.84602
1273,1264,进贤,进贤县,3,jinxian,791,331700,J,116.24087,28.37679
1275,1274,昌江,昌江区,3,changjiang,799,333000,C,117.18359,29.27321
1276,1274,珠山,珠山区,3,zhushan,800,333000,Z,117.20233,29.30127
1277,1274,浮梁,浮梁县,3,fuliang,802,333400,F,117.21517,29.35156
1278,1274,乐平,乐平市,3,leping,801,333300,L,117.12887,28.96295
1280,1279,安源,安源区,3,anyuan,800,337000,A,113.89135,27.61653
1281,1279,湘东,湘东区,3,xiangdong,801,337016,X,113.73294,27.64007
1282,1279,莲花,莲花县,3,lianhua,802,337100,L,113.96142,27.12866
1283,1279,上栗,上栗县,3,shangli,803,337009,S,113.79403,27.87467
1284,1279,芦溪,芦溪县,3,luxi,804,337053,L,114.02951,27.63063
1286,1285,庐山,庐山区,3,lushan,792,332005,L,115.98904,29.67177
1287,1285,浔阳,浔阳区,3,xunyang,792,332000,,115.98986,29.72786
1288,1285,九江,九江县,3,jiujiang,792,332100,J,115.91128,29.60852
1289,1285,武宁,武宁县,3,wuning,792,332300,W,115.10061,29.2584
1290,1285,修水,修水县,3,xiushui,792,332400,X,114.54684,29.02539
1291,1285,永修,永修县,3,yongxiu,792,330300,Y,115.80911,29.02093
1292,1285,德安,德安县,3,de'an,792,330400,D,115.75601,29.31341
1293,1285,星子,星子县,3,xingzi,792,332800,X,116.04492,29.44608
1294,1285,都昌,都昌县,3,duchang,792,332600,D,116.20401,29.27327
1295,1285,湖口,湖口县,3,hukou,792,332500,H,116.21853,29.73818
1296,1285,彭泽,彭泽县,3,pengze,792,332700,P,116.55011,29.89589
1297,1285,瑞昌,瑞昌市,3,ruichang,792,332200,R,115.66705,29.67183
1298,1285,共青城,共青城市,3,gongqingcheng,792,332020,G,115.801939,29.238785
1300,1299,渝水,渝水区,3,yushui,790,338025,Y,114.944,27.80098
1301,1299,分宜,分宜县,3,fenyi,790,336600,F,114.69189,27.81475
1303,1302,月湖,月湖区,3,yuehu,701,335000,Y,117.03732,28.23913
1304,1302,余江,余江县,3,yujiang,701,335200,Y,116.81851,28.21034
1305,1302,贵溪,贵溪市,3,guixi,701,335400,G,117.24246,28.2926
1307,1306,章贡,章贡区,3,zhanggong,797,341000,Z,114.94284,25.8624
1308,1306,南康,南康区,3,nankang,797,341400,N,114.756933,25.661721
1309,1306,赣县,赣县,3,ganxian,797,341100,G,115.01171,25.86149
1310,1306,信丰,信丰县,3,xinfeng,797,341600,X,114.92279,25.38612
1311,1306,大余,大余县,3,dayu,797,341500,D,114.35757,25.39561
1312,1306,上犹,上犹县,3,shangyou,797,341200,S,114.54138,25.79567
1313,1306,崇义,崇义县,3,chongyi,797,341300,C,114.30835,25.68186
1314,1306,安远,安远县,3,anyuan,797,342100,A,115.39483,25.1371
1315,1306,龙南,龙南县,3,longnan,797,341700,L,114.78994,24.91086
1316,1306,定南,定南县,3,dingnan,797,341900,D,115.02713,24.78395
1317,1306,全南,全南县,3,quannan,797,341800,Q,114.5292,24.74324
1318,1306,宁都,宁都县,3,ningdu,797,342800,N,116.01565,26.47227
1319,1306,于都,于都县,3,yudu,797,342300,Y,115.41415,25.95257
1320,1306,兴国,兴国县,3,xingguo,797,342400,X,115.36309,26.33776
1321,1306,会昌,会昌县,3,huichang,797,342600,H,115.78555,25.60068
1322,1306,寻乌,寻乌县,3,xunwu,797,342200,X,115.64852,24.95513
1323,1306,石城,石城县,3,shicheng,797,342700,S,116.3442,26.32617
1324,1306,瑞金,瑞金市,3,ruijin,797,342500,R,116.02703,25.88557
1326,1325,吉州,吉州区,3,jizhou,796,343000,J,114.97598,27.10669
1327,1325,青原,青原区,3,qingyuan,796,343009,Q,115.01747,27.10577
1328,1325,吉安,吉安县,3,ji'an,796,343100,J,114.90695,27.04048
1329,1325,吉水,吉水县,3,jishui,796,331600,J,115.1343,27.21071
1330,1325,峡江,峡江县,3,xiajiang,796,331409,X,115.31723,27.576
1331,1325,新干,新干县,3,xingan,796,331300,X,115.39306,27.74092
1332,1325,永丰,永丰县,3,yongfeng,796,331500,Y,115.44238,27.31785
1333,1325,泰和,泰和县,3,taihe,796,343700,T,114.90789,26.79113
1334,1325,遂川,遂川县,3,suichuan,796,343900,S,114.51629,26.32598
1335,1325,万安,万安县,3,wan'an,796,343800,W,114.78659,26.45931
1336,1325,安福,安福县,3,anfu,796,343200,A,114.61956,27.39276
1337,1325,永新,永新县,3,yongxin,796,343400,Y,114.24246,26.94488
1338,1325,井冈山,井冈山市,3,jinggangshan,796,343600,J,114.28949,26.74804
1340,1339,袁州,袁州区,3,yuanzhou,795,336000,Y,114.38246,27.79649
1341,1339,奉新,奉新县,3,fengxin,795,330700,F,115.40036,28.6879
1342,1339,万载,万载县,3,wanzai,795,336100,W,114.4458,28.10656
1343,1339,上高,上高县,3,shanggao,795,336400,S,114.92459,28.23423
1344,1339,宜丰,宜丰县,3,yifeng,795,336300,Y,114.7803,28.38555
1345,1339,靖安,靖安县,3,jing'an,795,330600,J,115.36279,28.86167
1346,1339,铜鼓,铜鼓县,3,tonggu,795,336200,T,114.37036,28.52311
1347,1339,丰城,丰城市,3,fengcheng,795,331100,F,115.77114,28.15918
1348,1339,樟树,樟树市,3,zhangshu,795,331200,Z,115.5465,28.05332
1349,1339,高安,高安市,3,gao'an,795,330800,G,115.3753,28.4178
1351,1350,临川,临川区,3,linchuan,794,344000,L,116.35919,27.97721
1352,1350,南城,南城县,3,nancheng,794,344700,N,116.64419,27.55381
1353,1350,黎川,黎川县,3,lichuan,794,344600,L,116.90771,27.28232
1354,1350,南丰,南丰县,3,nanfeng,794,344500,N,116.5256,27.21842
1355,1350,崇仁,崇仁县,3,chongren,794,344200,C,116.06021,27.75962
1356,1350,乐安,乐安县,3,le'an,794,344300,L,115.83108,27.42812
1357,1350,宜黄,宜黄县,3,yihuang,794,344400,Y,116.23626,27.55487
1358,1350,金溪,金溪县,3,jinxi,794,344800,J,116.77392,27.90753
1359,1350,资溪,资溪县,3,zixi,794,335300,Z,117.06939,27.70493
1360,1350,东乡,东乡县,3,dongxiang,794,331800,D,116.59039,28.23614
1361,1350,广昌,广昌县,3,guangchang,794,344900,G,116.32547,26.8341
1363,1362,信州,信州区,3,xinzhou,793,334000,X,117.96682,28.43121
1364,1362,上饶,上饶县,3,shangrao,793,334100,S,117.90884,28.44856
1365,1362,广丰,广丰县,3,guangfeng,793,334600,G,118.19158,28.43766
1366,1362,玉山,玉山县,3,yushan,793,334700,Y,118.24462,28.6818
1367,1362,铅山,铅山县,3,yanshan,793,334500,Q,117.70996,28.31549
1368,1362,横峰,横峰县,3,hengfeng,793,334300,H,117.5964,28.40716
1369,1362,弋阳,弋阳县,3,yiyang,793,334400,,117.45929,28.37451
1370,1362,余干,余干县,3,yugan,793,335100,Y,116.69555,28.70206
1371,1362,鄱阳,鄱阳县,3,poyang,793,333100,,116.69967,29.0118
1372,1362,万年,万年县,3,wannian,793,335500,W,117.06884,28.69537
1373,1362,婺源,婺源县,3,wuyuan,793,333200,,117.86105,29.24841
1374,1362,德兴,德兴市,3,dexing,793,334200,D,117.57919,28.94736
1377,1376,历下,历下区,3,lixia,531,250014,L,117.0768,36.66661
1378,1376,市中区,市中区,3,shizhongqu,531,250001,S,116.99741,36.65101
1379,1376,槐荫,槐荫区,3,huaiyin,531,250117,H,116.90075,36.65136
1380,1376,天桥,天桥区,3,tianqiao,531,250031,T,116.98749,36.67801
1381,1376,历城,历城区,3,licheng,531,250100,L,117.06509,36.67995
1382,1376,长清,长清区,3,changqing,531,250300,C,116.75192,36.55352
1383,1376,平阴,平阴县,3,pingyin,531,250400,P,116.45587,36.28955
1384,1376,济阳,济阳县,3,jiyang,531,251400,J,117.17327,36.97845
1385,1376,商河,商河县,3,shanghe,531,251600,S,117.15722,37.31119
1386,1376,章丘,章丘市,3,zhangqiu,531,250200,Z,117.53677,36.71392
1388,1387,市南,市南区,3,shinan,532,266001,S,120.38773,36.06671
1389,1387,市北,市北区,3,shibei,532,266011,S,120.37469,36.08734
1390,1387,黄岛,黄岛区,3,huangdao,532,266500,H,120.19775,35.96065
1391,1387,崂山,崂山区,3,laoshan,532,266100,,120.46923,36.10717
1392,1387,李沧,李沧区,3,licang,532,266021,L,120.43286,36.14502
1393,1387,城阳,城阳区,3,chengyang,532,266041,C,120.39621,36.30735
1394,1387,胶州,胶州市,3,jiaozhou,532,266300,J,120.0335,36.26442
1395,1387,即墨,即墨市,3,jimo,532,266200,J,120.44699,36.38907
1396,1387,平度,平度市,3,pingdu,532,266700,P,119.95996,36.78688
1397,1387,莱西,莱西市,3,laixi,532,266600,L,120.51773,36.88804
1398,1387,西海岸,西海岸新区,3,xihai'an,532,266500,X,120.19775,35.96065
1400,1399,淄川,淄川区,3,zichuan,533,255100,Z,117.96655,36.64339
1401,1399,张店,张店区,3,zhangdian,533,255022,Z,118.01788,36.80676
1402,1399,博山,博山区,3,boshan,533,255200,B,117.86166,36.49469
1403,1399,临淄,临淄区,3,linzi,533,255400,L,118.30966,36.8259
1404,1399,周村,周村区,3,zhoucun,533,255300,Z,117.86969,36.80322
1405,1399,桓台,桓台县,3,huantai,533,256400,H,118.09698,36.96036
1406,1399,高青,高青县,3,gaoqing,533,256300,G,117.82708,37.17197
1407,1399,沂源,沂源县,3,yiyuan,533,256100,Y,118.17105,36.18536
1409,1408,市中区,市中区,3,shizhongqu,632,277101,S,117.55603,34.86391
1410,1408,薛城,薛城区,3,xuecheng,632,277000,X,117.26318,34.79498
1411,1408,峄城,峄城区,3,yicheng,632,277300,,117.59057,34.77225
1412,1408,台儿庄,台儿庄区,3,taierzhuang,632,277400,T,117.73452,34.56363
1413,1408,山亭,山亭区,3,shanting,632,277200,S,117.4663,35.09541
1414,1408,滕州,滕州市,3,tengzhou,632,277500,,117.165,35.10534
1416,1415,东营,东营区,3,dongying,546,257029,D,118.5816,37.44875
1417,1415,河口,河口区,3,hekou,546,257200,H,118.5249,37.88541
1418,1415,垦利,垦利县,3,kenli,546,257500,K,118.54815,37.58825
1419,1415,利津,利津县,3,lijin,546,257400,L,118.25637,37.49157
1420,1415,广饶,广饶县,3,guangrao,546,257300,G,118.40704,37.05381
1422,1421,芝罘,芝罘区,3,zhifu,635,264001,Z,121.40023,37.54064
1423,1421,福山,福山区,3,fushan,635,265500,F,121.26812,37.49841
1424,1421,牟平,牟平区,3,muping,635,264100,M,121.60067,37.38846
1425,1421,莱山,莱山区,3,laishan,635,264600,L,121.44512,37.51165
1426,1421,长岛,长岛县,3,changdao,635,265800,C,120.738,37.91754
1427,1421,龙口,龙口市,3,longkou,635,265700,L,120.50634,37.64064
1428,1421,莱阳,莱阳市,3,laiyang,635,265200,L,120.71066,36.98012
1429,1421,莱州,莱州市,3,laizhou,635,261400,L,119.94137,37.17806
1430,1421,蓬莱,蓬莱市,3,penglai,635,265600,P,120.75988,37.81119
1431,1421,招远,招远市,3,zhaoyuan,635,265400,Z,120.40481,37.36269
1432,1421,栖霞,栖霞市,3,qixia,635,265300,Q,120.85025,37.33571
1433,1421,海阳,海阳市,3,haiyang,635,265100,H,121.15976,36.77622
1435,1434,潍城,潍城区,3,weicheng,536,261021,W,119.10582,36.7139
1436,1434,寒亭,寒亭区,3,hanting,536,261100,H,119.21832,36.77504
1437,1434,坊子,坊子区,3,fangzi,536,261200,F,119.16476,36.65218
1438,1434,奎文,奎文区,3,kuiwen,536,261031,K,119.12532,36.70723
1439,1434,临朐,临朐县,3,linqu,536,262600,L,118.544,36.51216
1440,1434,昌乐,昌乐县,3,changle,536,262400,C,118.83017,36.7078
1441,1434,青州,青州市,3,qingzhou,536,262500,Q,118.47915,36.68505
1442,1434,诸城,诸城市,3,zhucheng,536,262200,Z,119.40988,35.99662
1443,1434,寿光,寿光市,3,shouguang,536,262700,S,118.74047,36.88128
1444,1434,安丘,安丘市,3,anqiu,536,262100,A,119.2189,36.47847
1445,1434,高密,高密市,3,gaomi,536,261500,G,119.75701,36.38397
1446,1434,昌邑,昌邑市,3,changyi,536,261300,C,119.39767,36.86008
1448,1447,任城,任城区,3,rencheng,537,272113,R,116.59504,35.40659
1449,1447,兖州,兖州区,3,yanzhou,537,272000,,116.826546,35.552305
1450,1447,微山,微山县,3,weishan,537,277600,W,117.12875,34.80712
1451,1447,鱼台,鱼台县,3,yutai,537,272300,Y,116.64761,34.99674
1452,1447,金乡,金乡县,3,jinxiang,537,272200,J,116.31146,35.065
1453,1447,嘉祥,嘉祥县,3,jiaxiang,537,272400,J,116.34249,35.40836
1454,1447,汶上,汶上县,3,wenshang,537,272501,,116.48742,35.73295
1455,1447,泗水,泗水县,3,sishui,537,273200,,117.27948,35.66113
1456,1447,梁山,梁山县,3,liangshan,537,272600,L,116.09683,35.80322
1457,1447,曲阜,曲阜市,3,qufu,537,273100,Q,116.98645,35.58091
1458,1447,邹城,邹城市,3,zoucheng,537,273500,Z,116.97335,35.40531
1460,1459,泰山,泰山区,3,taishan,538,271000,T,117.13446,36.19411
1461,1459,岱岳,岱岳区,3,daiyue,538,271000,,117.04174,36.1875
1462,1459,宁阳,宁阳县,3,ningyang,538,271400,N,116.80542,35.7599
1463,1459,东平,东平县,3,dongping,538,271500,D,116.47113,35.93792
1464,1459,新泰,新泰市,3,xintai,538,271200,X,117.76959,35.90887
1465,1459,肥城,肥城市,3,feicheng,538,271600,F,116.76815,36.18247
1467,1466,环翠,环翠区,3,huancui,631,264200,H,122.12344,37.50199
1468,1466,文登,文登区,3,wendeng,631,266440,W,122.057139,37.196211
1469,1466,荣成,荣成市,3,rongcheng,631,264300,R,122.48773,37.1652
1470,1466,乳山,乳山市,3,rushan,631,264500,R,121.53814,36.91918
1472,1471,东港,东港区,3,donggang,633,276800,D,119.46237,35.42541
1473,1471,岚山,岚山区,3,lanshan,633,276808,,119.31884,35.12203
1474,1471,五莲,五莲县,3,wulian,633,262300,W,119.207,35.75004
1475,1471,莒县,莒县,3,juxian,633,276500,,118.83789,35.58054
1477,1476,莱城,莱城区,3,laicheng,634,271199,L,117.65986,36.2032
1478,1476,钢城,钢城区,3,gangcheng,634,271100,G,117.8049,36.06319
1480,1479,兰山,兰山区,3,lanshan,539,276002,L,118.34817,35.06872
1481,1479,罗庄,罗庄区,3,luozhuang,539,276022,L,118.28466,34.99627
1482,1479,河东,河东区,3,hedong,539,276034,H,118.41055,35.08803
1483,1479,沂南,沂南县,3,yinan,539,276300,Y,118.47061,35.55131
1484,1479,郯城,郯城县,3,tancheng,539,276100,,118.36712,34.61354
1485,1479,沂水,沂水县,3,yishui,539,276400,Y,118.63009,35.78731
1486,1479,兰陵,兰陵县,3,lanling,539,277700,L,117.856592,34.738315
1487,1479,费县,费县,3,feixian,539,273400,F,117.97836,35.26562
1488,1479,平邑,平邑县,3,pingyi,539,273300,P,117.63867,35.50573
1489,1479,莒南,莒南县,3,junan,539,276600,,118.83227,35.17539
1490,1479,蒙阴,蒙阴县,3,mengyin,539,276200,M,117.94592,35.70996
1491,1479,临沭,临沭县,3,linshu,539,276700,L,118.65267,34.92091
1493,1492,德城,德城区,3,decheng,534,253012,D,116.29943,37.45126
1494,1492,陵城,陵城区,3,lingcheng,534,253500,L,116.57601,37.33571
1495,1492,宁津,宁津县,3,ningjin,534,253400,N,116.79702,37.65301
1496,1492,庆云,庆云县,3,qingyun,534,253700,Q,117.38635,37.77616
1497,1492,临邑,临邑县,3,linyi,534,251500,L,116.86547,37.19053
1498,1492,齐河,齐河县,3,qihe,534,251100,Q,116.75515,36.79532
1499,1492,平原,平原县,3,pingyuan,534,253100,P,116.43432,37.16632
1500,1492,夏津,夏津县,3,xiajin,534,253200,X,116.0017,36.94852
1501,1492,武城,武城县,3,wucheng,534,253300,W,116.07009,37.21403
1502,1492,乐陵,乐陵市,3,leling,534,253600,L,117.23141,37.73164
1503,1492,禹城,禹城市,3,yucheng,534,251200,Y,116.64309,36.93444
1505,1504,东昌府,东昌府区,3,dongchangfu,635,252000,D,115.97383,36.44458
1506,1504,阳谷,阳谷县,3,yanggu,635,252300,Y,115.79126,36.11444
1507,1504,莘县,莘县,3,shenxian,635,252400,,115.6697,36.23423
1508,1504,茌平,茌平县,3,chiping,635,252100,,116.25491,36.57969
1509,1504,东阿,东阿县,3,dong'e,635,252200,D,116.25012,36.33209
1510,1504,冠县,冠县,3,guanxian,635,252500,G,115.44195,36.48429
1511,1504,高唐,高唐县,3,gaotang,635,252800,G,116.23172,36.86535
1512,1504,临清,临清市,3,linqing,635,252600,L,115.70629,36.83945
1514,1513,滨城,滨城区,3,bincheng,543,256613,B,118.02026,37.38524
1515,1513,沾化,沾化区,3,zhanhua,543,256800,Z,118.13214,37.69832
1516,1513,惠民,惠民县,3,huimin,543,251700,H,117.51113,37.49013
1517,1513,阳信,阳信县,3,yangxin,543,251800,Y,117.58139,37.64198
1518,1513,无棣,无棣县,3,wudi,543,251900,W,117.61395,37.74009
1519,1513,博兴,博兴县,3,boxing,543,256500,B,118.1336,37.14316
1520,1513,邹平,邹平县,3,zouping,543,256200,Z,117.74307,36.86295
1521,1513,北海新区,北海新区,3,beihaixinqu,543,256200,B,118.016974,37.383542
1523,1522,牡丹,牡丹区,3,mudan,530,274009,M,115.41662,35.25091
1524,1522,曹县,曹县,3,caoxian,530,274400,C,115.54226,34.82659
1525,1522,单县,单县,3,shanxian,530,273700,D,116.08703,34.79514
1526,1522,成武,成武县,3,chengwu,530,274200,C,115.8897,34.95332
1527,1522,巨野,巨野县,3,juye,530,274900,J,116.09497,35.39788
1528,1522,郓城,郓城县,3,yuncheng,530,274700,,115.94439,35.60044
1529,1522,鄄城,鄄城县,3,juancheng,530,274600,,115.50997,35.56412
1530,1522,定陶,定陶县,3,dingtao,530,274100,D,115.57287,35.07118
1531,1522,东明,东明县,3,dongming,530,274500,D,115.09079,35.28906
1534,1533,中原,中原区,3,zhongyuan,371,450007,Z,113.61333,34.74827
1535,1533,二七,二七区,3,erqi,371,450052,E,113.63931,34.72336
1536,1533,管城,管城回族区,3,guancheng,371,450000,G,113.67734,34.75383
1537,1533,金水,金水区,3,jinshui,371,450003,J,113.66057,34.80028
1538,1533,上街,上街区,3,shangjie,371,450041,S,113.30897,34.80276
1539,1533,惠济,惠济区,3,huiji,371,450053,H,113.61688,34.86735
1540,1533,中牟,中牟县,3,zhongmu,371,451450,Z,113.97619,34.71899
1541,1533,巩义,巩义市,3,gongyi,371,451200,G,113.022,34.74794
1542,1533,荥阳,荥阳市,3,xingyang,371,450100,,113.38345,34.78759
1543,1533,新密,新密市,3,xinmi,371,452300,X,113.3869,34.53704
1544,1533,新郑,新郑市,3,xinzheng,371,451100,X,113.73645,34.3955
1545,1533,登封,登封市,3,dengfeng,371,452470,D,113.05023,34.45345
1547,1546,龙亭,龙亭区,3,longting,378,475100,L,114.35484,34.79995
1548,1546,顺河,顺河回族区,3,shunhe,378,475000,S,114.36123,34.79586
1549,1546,鼓楼,鼓楼区,3,gulou,378,475000,G,114.35559,34.79517
1550,1546,禹王台,禹王台区,3,yuwangtai,378,475003,Y,114.34787,34.77693
1551,1546,祥符,祥符区,3,xiangfu,378,475100,X,114.43859,34.75874
1552,1546,杞县,杞县,3,qixian,378,475200,,114.7828,34.55033
1553,1546,通许,通许县,3,tongxu,378,475400,T,114.46716,34.47522
1554,1546,尉氏,尉氏县,3,weishi,378,475500,W,114.19284,34.41223
1555,1546,兰考,兰考县,3,lankao,378,475300,L,114.81961,34.8235
1557,1556,老城,老城区,3,laocheng,379,471002,L,112.46902,34.68364
1558,1556,西工,西工区,3,xigong,379,471000,X,112.4371,34.67
1559,1556,瀍河,瀍河回族区,3,chanhe,379,471002,,112.50018,34.67985
1560,1556,涧西,涧西区,3,jianxi,379,471003,J,112.39588,34.65823
1561,1556,吉利,吉利区,3,jili,379,471012,J,112.58905,34.90088
1562,1556,洛龙,洛龙区,3,luolong,379,471000,L,112.46412,34.61866
1563,1556,孟津,孟津县,3,mengjin,379,471100,M,112.44351,34.826
1564,1556,新安,新安县,3,xin'an,379,471800,X,112.13238,34.72814
1565,1556,栾川,栾川县,3,luanchuan,379,471500,,111.61779,33.78576
1566,1556,嵩县,嵩县,3,songxian,379,471400,,112.08526,34.13466
1567,1556,汝阳,汝阳县,3,ruyang,379,471200,R,112.47314,34.15387
1568,1556,宜阳,宜阳县,3,yiyang,379,471600,Y,112.17907,34.51523
1569,1556,洛宁,洛宁县,3,luoning,379,471700,L,111.65087,34.38913
1570,1556,伊川,伊川县,3,yichuan,379,471300,Y,112.42947,34.42205
1571,1556,偃师,偃师市,3,yanshi,379,471900,,112.7922,34.7281
1573,1572,新华,新华区,3,xinhua,375,467002,X,113.29402,33.7373
1574,1572,卫东,卫东区,3,weidong,375,467021,W,113.33511,33.73472
1575,1572,石龙,石龙区,3,shilong,375,467045,S,112.89879,33.89878
1576,1572,湛河,湛河区,3,zhanhe,375,467000,Z,113.29252,33.7362
1577,1572,宝丰,宝丰县,3,baofeng,375,467400,B,113.05493,33.86916
1578,1572,叶县,叶县,3,yexian,375,467200,Y,113.35104,33.62225
1579,1572,鲁山,鲁山县,3,lushan,375,467300,L,112.9057,33.73879
1580,1572,郏县,郏县,3,jiaxian,375,467100,,113.21588,33.97072
1581,1572,舞钢,舞钢市,3,wugang,375,462500,W,113.52417,33.2938
1582,1572,汝州,汝州市,3,ruzhou,375,467500,R,112.84301,34.16135
1584,1583,文峰,文峰区,3,wenfeng,372,455000,W,114.35708,36.09046
1585,1583,北关,北关区,3,beiguan,372,455001,B,114.35735,36.11872
1586,1583,殷都,殷都区,3,yindu,372,455004,Y,114.3034,36.1099
1587,1583,龙安,龙安区,3,long'an,372,455001,L,114.34814,36.11904
1588,1583,安阳,安阳县,3,anyang,372,455000,A,114.36605,36.06695
1589,1583,汤阴,汤阴县,3,tangyin,372,456150,T,114.35839,35.92152
1590,1583,滑县,滑县,3,huaxian,372,456400,H,114.52066,35.5807
1591,1583,内黄,内黄县,3,neihuang,372,456350,N,114.90673,35.95269
1592,1583,林州,林州市,3,linzhou,372,456550,L,113.81558,36.07804
1594,1593,鹤山,鹤山区,3,heshan,392,458010,H,114.16336,35.95458
1595,1593,山城,山城区,3,shancheng,392,458000,S,114.18443,35.89773
1596,1593,淇滨,淇滨区,3,qibin,392,458000,,114.29867,35.74127
1597,1593,浚县,浚县,3,xunxian,392,456250,J,114.54879,35.67085
1598,1593,淇县,淇县,3,qixian,392,456750,,114.1976,35.60782
1600,1599,红旗,红旗区,3,hongqi,373,453000,H,113.87523,35.30367
1601,1599,卫滨,卫滨区,3,weibin,373,453000,W,113.86578,35.30211
1602,1599,凤泉,凤泉区,3,fengquan,373,453011,F,113.91507,35.38399
1603,1599,牧野,牧野区,3,muye,373,453002,M,113.9086,35.3149
1604,1599,新乡,新乡县,3,xinxiang,373,453700,X,113.80511,35.19075
1605,1599,获嘉,获嘉县,3,huojia,373,453800,H,113.66159,35.26521
1606,1599,原阳,原阳县,3,yuanyang,373,453500,Y,113.93994,35.06565
1607,1599,延津,延津县,3,yanjin,373,453200,Y,114.20266,35.14327
1608,1599,封丘,封丘县,3,fengqiu,373,453300,F,114.41915,35.04166
1609,1599,长垣,长垣县,3,changyuan,373,453400,C,114.66882,35.20046
1610,1599,卫辉,卫辉市,3,weihui,373,453100,W,114.06454,35.39843
1611,1599,辉县,辉县市,3,huixian,373,453600,H,113.8067,35.46307
1613,1612,解放,解放区,3,jiefang,391,454000,J,113.22933,35.24023
1614,1612,中站,中站区,3,zhongzhan,391,454191,Z,113.18315,35.23665
1615,1612,马村,马村区,3,macun,391,454171,M,113.3187,35.26908
1616,1612,山阳,山阳区,3,shanyang,391,454002,S,113.25464,35.21436
1617,1612,修武,修武县,3,xiuwu,391,454350,X,113.44775,35.22357
1618,1612,博爱,博爱县,3,boai,391,454450,B,113.06698,35.16943
1619,1612,武陟,武陟县,3,wuzhi,391,454950,W,113.39718,35.09505
1620,1612,温县,温县,3,wenxian,391,454850,W,113.08065,34.94022
1621,1612,沁阳,沁阳市,3,qinyang,391,454550,Q,112.94494,35.08935
1622,1612,孟州,孟州市,3,mengzhou,391,454750,M,112.79138,34.9071
1624,1623,华龙,华龙区,3,hualong,393,457001,H,115.07446,35.77736
1625,1623,清丰,清丰县,3,qingfeng,393,457300,Q,115.10415,35.88507
1626,1623,南乐,南乐县,3,nanle,393,457400,N,115.20639,36.07686
1627,1623,范县,范县,3,fanxian,393,457500,F,115.50405,35.85178
1628,1623,台前,台前县,3,taiqian,393,457600,T,115.87158,35.96923
1629,1623,濮阳,濮阳县,3,puyang,393,457100,,115.03057,35.70745
1631,1630,魏都,魏都区,3,weidu,374,461000,W,113.8227,34.02544
1632,1630,许昌,许昌县,3,xuchang,374,461100,X,113.84707,34.00406
1633,1630,鄢陵,鄢陵县,3,yanling,374,461200,,114.18795,34.10317
1634,1630,襄城,襄城县,3,xiangcheng,374,461700,X,113.48196,33.84928
1635,1630,禹州,禹州市,3,yuzhou,374,461670,Y,113.48803,34.14054
1636,1630,长葛,长葛市,3,changge,374,461500,C,113.77328,34.21846
1638,1637,源汇,源汇区,3,yuanhui,395,462000,Y,114.00647,33.55627
1639,1637,郾城,郾城区,3,yancheng,395,462300,,114.00694,33.58723
1640,1637,召陵,召陵区,3,zhaoling,395,462300,Z,114.09399,33.58601
1641,1637,舞阳,舞阳县,3,wuyang,395,462400,W,113.59848,33.43243
1642,1637,临颍,临颍县,3,linying,395,462600,L,113.93661,33.81123
1644,1643,湖滨,湖滨区,3,hubin,398,472000,H,111.20006,34.77872
1645,1643,渑池,渑池县,3,mianchi,398,472400,,111.76184,34.76725
1646,1643,陕县,陕县,3,shanxian,398,472100,S,111.10333,34.72052
1647,1643,卢氏,卢氏县,3,lushi,398,472200,L,111.04782,34.05436
1648,1643,义马,义马市,3,yima,398,472300,Y,111.87445,34.74721
1649,1643,灵宝,灵宝市,3,lingbao,398,472500,L,110.8945,34.51682
1651,1650,宛城,宛城区,3,wancheng,377,473001,W,112.53955,33.00378
1652,1650,卧龙,卧龙区,3,wolong,377,473003,W,112.53479,32.98615
1653,1650,南召,南召县,3,nanzhao,377,474650,N,112.43194,33.49098
1654,1650,方城,方城县,3,fangcheng,377,473200,F,113.01269,33.25453
1655,1650,西峡,西峡县,3,xixia,377,474550,X,111.48187,33.29772
1656,1650,镇平,镇平县,3,zhenping,377,474250,Z,112.2398,33.03629
1657,1650,内乡,内乡县,3,neixiang,377,474350,N,111.84957,33.04671
1658,1650,淅川,淅川县,3,xichuan,377,474450,,111.48663,33.13708
1659,1650,社旗,社旗县,3,sheqi,377,473300,S,112.94656,33.05503
1660,1650,唐河,唐河县,3,tanghe,377,473400,T,112.83609,32.69453
1661,1650,新野,新野县,3,xinye,377,473500,X,112.36151,32.51698
1662,1650,桐柏,桐柏县,3,tongbai,377,474750,T,113.42886,32.37917
1663,1650,邓州,邓州市,3,dengzhou,377,474150,D,112.0896,32.68577
1665,1664,梁园,梁园区,3,liangyuan,370,476000,L,115.64487,34.44341
1666,1664,睢阳,睢阳区,3,suiyang,370,476100,,115.65338,34.38804
1667,1664,民权,民权县,3,minquan,370,476800,M,115.14621,34.64931
1668,1664,睢县,睢县,3,suixian,370,476900,,115.07168,34.44539
1669,1664,宁陵,宁陵县,3,ningling,370,476700,N,115.30511,34.45463
1670,1664,柘城,柘城县,3,zhecheng,370,476200,,115.30538,34.0911
1671,1664,虞城,虞城县,3,yucheng,370,476300,Y,115.86337,34.40189
1672,1664,夏邑,夏邑县,3,xiayi,370,476400,X,116.13348,34.23242
1673,1664,永城,永城市,3,yongcheng,370,476600,Y,116.44943,33.92911
1675,1674,浉河,浉河区,3,shihe,376,464000,,114.05871,32.1168
1676,1674,平桥,平桥区,3,pingqiao,376,464100,P,114.12435,32.10095
1677,1674,罗山,罗山县,3,luoshan,376,464200,L,114.5314,32.20277
1678,1674,光山,光山县,3,guangshan,376,465450,G,114.91873,32.00992
1679,1674,新县,新县,3,xinxian,376,465550,X,114.87924,31.64386
1680,1674,商城,商城县,3,shangcheng,376,465350,S,115.40856,31.79986
1681,1674,固始,固始县,3,gushi,376,465250,G,115.68298,32.18011
1682,1674,潢川,潢川县,3,huangchuan,376,465150,,115.04696,32.13763
1683,1674,淮滨,淮滨县,3,huaibin,376,464400,H,115.4205,32.46614
1684,1674,息县,息县,3,xixian,376,464300,X,114.7402,32.34279
1686,1685,川汇,川汇区,3,chuanhui,394,466000,C,114.64202,33.6256
1687,1685,扶沟,扶沟县,3,fugou,394,461300,F,114.39477,34.05999
1688,1685,西华,西华县,3,xihua,394,466600,X,114.52279,33.78548
1689,1685,商水,商水县,3,shangshui,394,466100,S,114.60604,33.53912
1690,1685,沈丘,沈丘县,3,shenqiu,394,466300,S,115.09851,33.40936
1691,1685,郸城,郸城县,3,dancheng,394,477150,D,115.17715,33.64485
1692,1685,淮阳,淮阳县,3,huaiyang,394,466700,H,114.88848,33.73211
1693,1685,太康,太康县,3,taikang,394,461400,T,114.83773,34.06376
1694,1685,鹿邑,鹿邑县,3,luyi,394,477200,L,115.48553,33.85931
1695,1685,项城,项城市,3,xiangcheng,394,466200,X,114.87558,33.4672
1697,1696,驿城,驿城区,3,yicheng,396,463000,,113.99377,32.97316
1698,1696,西平,西平县,3,xiping,396,463900,X,114.02322,33.3845
1699,1696,上蔡,上蔡县,3,shangcai,396,463800,S,114.26825,33.26825
1700,1696,平舆,平舆县,3,pingyu,396,463400,P,114.63552,32.95727
1701,1696,正阳,正阳县,3,zhengyang,396,463600,Z,114.38952,32.6039
1702,1696,确山,确山县,3,queshan,396,463200,Q,114.02917,32.80281
1703,1696,泌阳,泌阳县,3,biyang,396,463700,M,113.32681,32.71781
1704,1696,汝南,汝南县,3,runan,396,463300,R,114.36138,33.00461
1705,1696,遂平,遂平县,3,suiping,396,463100,S,114.01297,33.14571
1706,1696,新蔡,新蔡县,3,xincai,396,463500,X,114.98199,32.7502
1708,1707,济源,济源市,3,jiyuan,391,454650,J,112.590047,35.090378
1711,1710,江岸,江岸区,3,jiang'an,27,430014,J,114.30943,30.59982
1712,1710,江汉,江汉区,3,jianghan,27,430021,J,114.27093,30.60146
1713,1710,硚口,硚口区,3,qiaokou,27,430033,,114.26422,30.56945
1714,1710,汉阳,汉阳区,3,hanyang,27,430050,H,114.27478,30.54915
1715,1710,武昌,武昌区,3,wuchang,27,430061,W,114.31589,30.55389
1716,1710,青山,青山区,3,qingshan,27,430080,Q,114.39117,30.63427
1717,1710,洪山,洪山区,3,hongshan,27,430070,H,114.34375,30.49989
1718,1710,东西湖,东西湖区,3,dongxihu,27,430040,D,114.13708,30.61989
1719,1710,汉南,汉南区,3,hannan,27,430090,H,114.08462,30.30879
1720,1710,蔡甸,蔡甸区,3,caidian,27,430100,C,114.02929,30.58197
1721,1710,江夏,江夏区,3,jiangxia,27,430200,J,114.31301,30.34653
1722,1710,黄陂,黄陂区,3,huangpi,27,432200,H,114.37512,30.88151
1723,1710,新洲,新洲区,3,xinzhou,27,431400,X,114.80136,30.84145
1725,1724,黄石港,黄石港区,3,huangshigang,714,435000,H,115.06604,30.22279
1726,1724,西塞山,西塞山区,3,xisaishan,714,435001,X,115.11016,30.20487
1727,1724,下陆,下陆区,3,xialu,714,435005,X,114.96112,30.17368
1728,1724,铁山,铁山区,3,tieshan,714,435006,T,114.90109,30.20678
1729,1724,阳新,阳新县,3,yangxin,714,435200,Y,115.21527,29.83038
1730,1724,大冶,大冶市,3,daye,714,435100,D,114.97174,30.09438
1732,1731,茅箭,茅箭区,3,maojian,719,442012,M,110.81341,32.59153
1733,1731,张湾,张湾区,3,zhangwan,719,442001,Z,110.77067,32.65195
1734,1731,郧阳,郧阳区,3,yunyang,719,442500,Y,110.81854,32.83593
1735,1731,郧西,郧西县,3,yunxi,719,442600,Y,110.42556,32.99349
1736,1731,竹山,竹山县,3,zhushan,719,442200,Z,110.23071,32.22536
1737,1731,竹溪,竹溪县,3,zhuxi,719,442300,Z,109.71798,32.31901
1738,1731,房县,房县,3,fangxian,719,442100,F,110.74386,32.05794
1739,1731,丹江口,丹江口市,3,danjiangkou,719,442700,D,111.51525,32.54085
1741,1740,西陵,西陵区,3,xiling,717,443000,X,111.28573,30.71077
1742,1740,伍家岗,伍家岗区,3,wujiagang,717,443001,W,111.3609,30.64434
1743,1740,点军,点军区,3,dianjun,717,443006,D,111.26828,30.6934
1744,1740,猇亭,猇亭区,3,xiaoting,717,443007,,111.44079,30.52663
1745,1740,夷陵,夷陵区,3,yiling,717,443100,Y,111.3262,30.76881
1746,1740,远安,远安县,3,yuan'an,717,444200,Y,111.6416,31.05989
1747,1740,兴山,兴山县,3,xingshan,717,443711,X,110.74951,31.34686
1748,1740,秭归,秭归县,3,zigui,717,443600,,110.98156,30.82702
1749,1740,长阳,长阳土家族自治县,3,changyang,717,443500,C,111.20105,30.47052
1750,1740,五峰,五峰土家族自治县,3,wufeng,717,443413,W,110.6748,30.19856
1751,1740,宜都,宜都市,3,yidu,717,443300,Y,111.45025,30.37807
1752,1740,当阳,当阳市,3,dangyang,717,444100,D,111.78912,30.8208
1753,1740,枝江,枝江市,3,zhijiang,717,443200,Z,111.76855,30.42612
1755,1754,襄城,襄城区,3,xiangcheng,710,441021,X,112.13372,32.01017
1756,1754,樊城,樊城区,3,fancheng,710,441001,F,112.13546,32.04482
1757,1754,襄州,襄州区,3,xiangzhou,710,441100,X,112.150327,32.015088
1758,1754,南漳,南漳县,3,nanzhang,710,441500,N,111.84603,31.77653
1759,1754,谷城,谷城县,3,gucheng,710,441700,G,111.65267,32.26377
1760,1754,保康,保康县,3,baokang,710,441600,B,111.26138,31.87874
1761,1754,老河口,老河口市,3,laohekou,710,441800,L,111.67117,32.38476
1762,1754,枣阳,枣阳市,3,zaoyang,710,441200,Z,112.77444,32.13142
1763,1754,宜城,宜城市,3,yicheng,710,441400,Y,112.25772,31.71972
1765,1764,梁子湖,梁子湖区,3,liangzihu,711,436064,L,114.68463,30.10003
1766,1764,华容,华容区,3,huarong,711,436030,H,114.73568,30.53328
1767,1764,鄂城,鄂城区,3,echeng,711,436000,E,114.89158,30.40024
1769,1768,东宝,东宝区,3,dongbao,724,448004,D,112.20147,31.05192
1770,1768,掇刀,掇刀区,3,duodao,724,448124,D,112.208,30.97316
1771,1768,京山,京山县,3,jingshan,724,431800,J,113.11074,31.0224
1772,1768,沙洋,沙洋县,3,shayang,724,448200,S,112.58853,30.70916
1773,1768,钟祥,钟祥市,3,zhongxiang,724,431900,Z,112.58932,31.1678
1775,1774,孝南,孝南区,3,xiaonan,712,432100,X,113.91111,30.9168
1776,1774,孝昌,孝昌县,3,xiaochang,712,432900,X,113.99795,31.25799
1777,1774,大悟,大悟县,3,dawu,712,432800,D,114.12564,31.56176
1778,1774,云梦,云梦县,3,yunmeng,712,432500,Y,113.75289,31.02093
1779,1774,应城,应城市,3,yingcheng,712,432400,Y,113.57287,30.92834
1780,1774,安陆,安陆市,3,anlu,712,432600,A,113.68557,31.25693
1781,1774,汉川,汉川市,3,hanchuan,712,432300,H,113.83898,30.66117
1783,1782,沙市,沙市区,3,shashi,716,434000,S,112.25543,30.31107
1784,1782,荆州,荆州区,3,jingzhou,716,434020,J,112.19006,30.35264
1785,1782,公安,公安县,3,gong'an,716,434300,G,112.23242,30.05902
1786,1782,监利,监利县,3,jianli,716,433300,J,112.89462,29.81494
1787,1782,江陵,江陵县,3,jiangling,716,434101,J,112.42468,30.04174
1788,1782,石首,石首市,3,shishou,716,434400,S,112.42636,29.72127
1789,1782,洪湖,洪湖市,3,honghu,716,433200,H,113.47598,29.827
1790,1782,松滋,松滋市,3,songzi,716,434200,S,111.76739,30.16965
1792,1791,黄州,黄州区,3,huangzhou,713,438000,H,114.88008,30.43436
1793,1791,团风,团风县,3,tuanfeng,713,438800,T,114.87228,30.64359
1794,1791,红安,红安县,3,hong'an,713,438401,H,114.6224,31.28668
1795,1791,罗田,罗田县,3,luotian,713,438600,L,115.39971,30.78255
1796,1791,英山,英山县,3,yingshan,713,438700,Y,115.68142,30.73516
1797,1791,浠水,浠水县,3,xishui,713,438200,,115.26913,30.45265
1798,1791,蕲春,蕲春县,3,qichun,713,435300,,115.43615,30.22613
1799,1791,黄梅,黄梅县,3,huangmei,713,435500,H,115.94427,30.07033
1800,1791,麻城,麻城市,3,macheng,713,438300,M,115.00988,31.17228
1801,1791,武穴,武穴市,3,wuxue,713,435400,W,115.55975,29.84446
1803,1802,咸安,咸安区,3,xian'an,715,437000,X,114.29872,29.8529
1804,1802,嘉鱼,嘉鱼县,3,jiayu,715,437200,J,113.93927,29.97054
1805,1802,通城,通城县,3,tongcheng,715,437400,T,113.81582,29.24568
1806,1802,崇阳,崇阳县,3,chongyang,715,437500,C,114.03982,29.55564
1807,1802,通山,通山县,3,tongshan,715,437600,T,114.48239,29.6063
1808,1802,赤壁,赤壁市,3,chibi,715,437300,C,113.90039,29.72454
1810,1809,曾都,曾都区,3,zengdu,722,441300,Z,113.37128,31.71614
1811,1809,随县,随县,3,suixian,722,441309,S,113.82663,31.6179
1812,1809,广水,广水市,3,guangshui,722,432700,G,113.82663,31.6179
1814,1813,恩施,恩施市,3,enshi,718,445000,E,109.47942,30.29502
1815,1813,利川,利川市,3,lichuan,718,445400,L,108.93591,30.29117
1816,1813,建始,建始县,3,jianshi,718,445300,J,109.72207,30.60209
1817,1813,巴东,巴东县,3,badong,718,444300,B,110.34066,31.04233
1818,1813,宣恩,宣恩县,3,xuanen,718,445500,X,109.49179,29.98714
1819,1813,咸丰,咸丰县,3,xianfeng,718,445600,X,109.152,29.67983
1820,1813,来凤,来凤县,3,laifeng,718,445700,L,109.40716,29.49373
1821,1813,鹤峰,鹤峰县,3,hefeng,718,445800,H,110.03091,29.89072
1823,1822,仙桃,仙桃市,3,xiantao,728,433000,X,113.453974,30.364953
1824,1822,潜江,潜江市,3,qianjiang,728,433100,Q,112.896866,30.421215
1825,1822,天门,天门市,3,tianmen,728,431700,T,113.165862,30.653061
1826,1822,神农架,神农架林区,3,shennongjia,719,442400,S,110.671525,31.744449
1829,1828,芙蓉,芙蓉区,3,furong,731,410011,,113.03176,28.1844
1830,1828,天心,天心区,3,tianxin,731,410004,T,112.98991,28.1127
1831,1828,岳麓,岳麓区,3,yuelu,731,410013,Y,112.93133,28.2351
1832,1828,开福,开福区,3,kaifu,731,410008,K,112.98623,28.25585
1833,1828,雨花,雨花区,3,yuhua,731,410011,Y,113.03567,28.13541
1834,1828,望城,望城区,3,wangcheng,731,410200,W,112.819549,28.347458
1835,1828,长沙,长沙县,3,changsha,731,410100,C,113.08071,28.24595
1836,1828,宁乡,宁乡县,3,ningxiang,731,410600,N,112.55749,28.25358
1837,1828,浏阳,浏阳市,3,liuyang,731,410300,,113.64312,28.16375
1839,1838,荷塘,荷塘区,3,hetang,731,412000,H,113.17315,27.85569
1840,1838,芦淞,芦淞区,3,lusong,731,412000,L,113.15562,27.78525
1841,1838,石峰,石峰区,3,shifeng,731,412005,S,113.11776,27.87552
1842,1838,天元,天元区,3,tianyuan,731,412007,T,113.12335,27.83103
1843,1838,株洲,株洲县,3,zhuzhou,731,412100,Z,113.14428,27.69826
1844,1838,攸县,攸县,3,youxian,731,412300,,113.34365,27.00352
1845,1838,茶陵,茶陵县,3,chaling,731,412400,C,113.54364,26.7915
1846,1838,炎陵,炎陵县,3,yanling,731,412500,Y,113.77163,26.48818
1847,1838,醴陵,醴陵市,3,liling,731,412200,,113.49704,27.64615
1849,1848,雨湖,雨湖区,3,yuhu,731,411100,Y,112.90399,27.86859
1850,1848,岳塘,岳塘区,3,yuetang,731,411101,Y,112.9606,27.85784
1851,1848,湘潭,湘潭县,3,xiangtan,731,411228,X,112.9508,27.77893
1852,1848,湘乡,湘乡市,3,xiangxiang,731,411400,X,112.53512,27.73543
1853,1848,韶山,韶山市,3,shaoshan,731,411300,S,112.52655,27.91503
1855,1854,珠晖,珠晖区,3,zhuhui,734,421002,Z,112.62054,26.89361
1856,1854,雁峰,雁峰区,3,yanfeng,734,421001,Y,112.61654,26.88866
1857,1854,石鼓,石鼓区,3,shigu,734,421005,S,112.61069,26.90232
1858,1854,蒸湘,蒸湘区,3,zhengxiang,734,421001,Z,112.6033,26.89651
1859,1854,南岳,南岳区,3,nanyue,734,421900,N,112.7384,27.23262
1860,1854,衡阳,衡阳县,3,hengyang,734,421200,H,112.37088,26.9706
1861,1854,衡南,衡南县,3,hengnan,734,421131,H,112.67788,26.73828
1862,1854,衡山,衡山县,3,hengshan,734,421300,H,112.86776,27.23134
1863,1854,衡东,衡东县,3,hengdong,734,421400,H,112.94833,27.08093
1864,1854,祁东,祁东县,3,qidong,734,421600,Q,112.09039,26.79964
1865,1854,耒阳,耒阳市,3,leiyang,734,421800,,112.85998,26.42132
1866,1854,常宁,常宁市,3,changning,734,421500,C,112.4009,26.40692
1868,1867,双清,双清区,3,shuangqing,739,422001,S,111.49715,27.23291
1869,1867,大祥,大祥区,3,daxiang,739,422000,D,111.45412,27.23332
1870,1867,北塔,北塔区,3,beita,739,422007,B,111.45219,27.24648
1871,1867,邵东,邵东县,3,shaodong,739,422800,S,111.74441,27.2584
1872,1867,新邵,新邵县,3,xinshao,739,422900,X,111.46066,27.32169
1873,1867,邵阳,邵阳县,3,shaoyang,739,422100,S,111.27459,26.99143
1874,1867,隆回,隆回县,3,longhui,739,422200,L,111.03216,27.10937
1875,1867,洞口,洞口县,3,dongkou,739,422300,D,110.57388,27.05462
1876,1867,绥宁,绥宁县,3,suining,739,422600,S,110.15576,26.58636
1877,1867,新宁,新宁县,3,xinning,739,422700,X,110.85131,26.42936
1878,1867,城步,城步苗族自治县,3,chengbu,739,422500,C,110.3222,26.39048
1879,1867,武冈,武冈市,3,wugang,739,422400,W,110.63281,26.72817
1881,1880,岳阳楼,岳阳楼区,3,yueyanglou,730,414000,Y,113.12942,29.3719
1882,1880,云溪,云溪区,3,yunxi,730,414009,Y,113.27713,29.47357
1883,1880,君山,君山区,3,junshan,730,414005,J,113.00439,29.45941
1884,1880,岳阳,岳阳县,3,yueyang,730,414100,Y,113.11987,29.14314
1885,1880,华容,华容县,3,huarong,730,414200,H,112.54089,29.53019
1886,1880,湘阴,湘阴县,3,xiangyin,730,414600,X,112.90911,28.68922
1887,1880,平江,平江县,3,pingjiang,730,414500,P,113.58105,28.70664
1888,1880,汨罗,汨罗市,3,miluo,730,414400,,113.06707,28.80631
1889,1880,临湘,临湘市,3,linxiang,730,414300,L,113.4501,29.47701
1891,1890,武陵,武陵区,3,wuling,736,415000,W,111.69791,29.02876
1892,1890,鼎城,鼎城区,3,dingcheng,736,415101,D,111.68078,29.01859
1893,1890,安乡,安乡县,3,anxiang,736,415600,A,112.16732,29.41326
1894,1890,汉寿,汉寿县,3,hanshou,736,415900,H,111.96691,28.90299
1895,1890,澧县,澧县,3,lixian,736,415500,,111.75866,29.63317
1896,1890,临澧,临澧县,3,linli,736,415200,L,111.65161,29.44163
1897,1890,桃源,桃源县,3,taoyuan,736,415700,T,111.48892,28.90474
1898,1890,石门,石门县,3,shimen,736,415300,S,111.37966,29.58424
1899,1890,津市,津市市,3,jinshi,736,415400,J,111.87756,29.60563
1901,1900,永定,永定区,3,yongding,744,427000,Y,110.47464,29.13387
1902,1900,武陵源,武陵源区,3,wulingyuan,744,427400,W,110.55026,29.34574
1903,1900,慈利,慈利县,3,cili,744,427200,C,111.13946,29.42989
1904,1900,桑植,桑植县,3,sangzhi,744,427100,S,110.16308,29.39815
1906,1905,资阳,资阳区,3,ziyang,737,413001,Z,112.32447,28.59095
1907,1905,赫山,赫山区,3,heshan,737,413002,H,112.37265,28.57425
1908,1905,南县,南县,3,nanxian,737,413200,N,112.3963,29.36159
1909,1905,桃江,桃江县,3,taojiang,737,413400,T,112.1557,28.51814
1910,1905,安化,安化县,3,anhua,737,413500,A,111.21298,28.37424
1911,1905,沅江,沅江市,3,yuanjiang,737,413100,,112.35427,28.84403
1913,1912,北湖,北湖区,3,beihu,735,423000,B,113.01103,25.78405
1914,1912,苏仙,苏仙区,3,suxian,735,423000,S,113.04226,25.80045
1915,1912,桂阳,桂阳县,3,guiyang,735,424400,G,112.73364,25.75406
1916,1912,宜章,宜章县,3,yizhang,735,424200,Y,112.95147,25.39931
1917,1912,永兴,永兴县,3,yongxing,735,423300,Y,113.11242,26.12646
1918,1912,嘉禾,嘉禾县,3,jiahe,735,424500,J,112.36935,25.58795
1919,1912,临武,临武县,3,linwu,735,424300,L,112.56369,25.27602
1920,1912,汝城,汝城县,3,rucheng,735,424100,R,113.68582,25.55204
1921,1912,桂东,桂东县,3,guidong,735,423500,G,113.9468,26.07987
1922,1912,安仁,安仁县,3,anren,735,423600,A,113.26944,26.70931
1923,1912,资兴,资兴市,3,zixing,735,423400,Z,113.23724,25.97668
1925,1924,零陵,零陵区,3,lingling,746,425100,L,111.62103,26.22109
1926,1924,冷水滩,冷水滩区,3,lengshuitan,746,425100,L,111.59214,26.46107
1927,1924,祁阳,祁阳县,3,qiyang,746,426100,Q,111.84011,26.58009
1928,1924,东安,东安县,3,dong'an,746,425900,D,111.3164,26.39202
1929,1924,双牌,双牌县,3,shuangpai,746,425200,S,111.65927,25.95988
1930,1924,道县,道县,3,daoxian,746,425300,D,111.60195,25.52766
1931,1924,江永,江永县,3,jiangyong,746,425400,J,111.34082,25.27233
1932,1924,宁远,宁远县,3,ningyuan,746,425600,N,111.94625,25.56913
1933,1924,蓝山,蓝山县,3,lanshan,746,425800,L,112.19363,25.36794
1934,1924,新田,新田县,3,xintian,746,425700,X,112.22103,25.9095
1935,1924,江华,江华瑶族自治县,3,jianghua,746,425500,J,111.58847,25.1845
1937,1936,鹤城,鹤城区,3,hecheng,745,418000,H,109.96509,27.54942
1938,1936,中方,中方县,3,zhongfang,745,418005,Z,109.94497,27.43988
1939,1936,沅陵,沅陵县,3,yuanling,745,419600,,110.39633,28.45548
1940,1936,辰溪,辰溪县,3,chenxi,745,419500,C,110.18942,28.00406
1941,1936,溆浦,溆浦县,3,xupu,745,419300,,110.59384,27.90836
1942,1936,会同,会同县,3,huitong,745,418300,H,109.73568,26.88716
1943,1936,麻阳,麻阳苗族自治县,3,mayang,745,419400,M,109.80194,27.866
1944,1936,新晃,新晃侗族自治县,3,xinhuang,745,419200,X,109.17166,27.35937
1945,1936,芷江,芷江侗族自治县,3,zhijiang,745,419100,,109.6849,27.44297
